%time,field.header.seq,field.header.stamp,field.header.frame_id,field.child_frame_id,field.pose.pose.position.x,field.pose.pose.position.y,field.pose.pose.position.z,field.pose.pose.orientation.x,field.pose.pose.orientation.y,field.pose.pose.orientation.z,field.pose.pose.orientation.w,field.pose.covariance0,field.pose.covariance1,field.pose.covariance2,field.pose.covariance3,field.pose.covariance4,field.pose.covariance5,field.pose.covariance6,field.pose.covariance7,field.pose.covariance8,field.pose.covariance9,field.pose.covariance10,field.pose.covariance11,field.pose.covariance12,field.pose.covariance13,field.pose.covariance14,field.pose.covariance15,field.pose.covariance16,field.pose.covariance17,field.pose.covariance18,field.pose.covariance19,field.pose.covariance20,field.pose.covariance21,field.pose.covariance22,field.pose.covariance23,field.pose.covariance24,field.pose.covariance25,field.pose.covariance26,field.pose.covariance27,field.pose.covariance28,field.pose.covariance29,field.pose.covariance30,field.pose.covariance31,field.pose.covariance32,field.pose.covariance33,field.pose.covariance34,field.pose.covariance35,field.twist.twist.linear.x,field.twist.twist.linear.y,field.twist.twist.linear.z,field.twist.twist.angular.x,field.twist.twist.angular.y,field.twist.twist.angular.z,field.twist.covariance0,field.twist.covariance1,field.twist.covariance2,field.twist.covariance3,field.twist.covariance4,field.twist.covariance5,field.twist.covariance6,field.twist.covariance7,field.twist.covariance8,field.twist.covariance9,field.twist.covariance10,field.twist.covariance11,field.twist.covariance12,field.twist.covariance13,field.twist.covariance14,field.twist.covariance15,field.twist.covariance16,field.twist.covariance17,field.twist.covariance18,field.twist.covariance19,field.twist.covariance20,field.twist.covariance21,field.twist.covariance22,field.twist.covariance23,field.twist.covariance24,field.twist.covariance25,field.twist.covariance26,field.twist.covariance27,field.twist.covariance28,field.twist.covariance29,field.twist.covariance30,field.twist.covariance31,field.twist.covariance32,field.twist.covariance33,field.twist.covariance34,field.twist.covariance35
1742680384859448558,0,398095858,camera_init,body,0.3115033818168358,0.026609036808950267,0.007639811523911685,-0.0008358124116181716,3.279000787160263e-05,-0.0003903870688950772,0.9999995739700914,0.0,0.0,0.0,0.0,0.0,0.0,0.0,0.0,0.0,0.0,0.0,0.0,0.0,0.0,0.0,0.0,0.0,0.0,0.0,0.0,0.0,0.0,0.0,0.0,0.0,0.0,0.0,0.0,0.0,0.0,0.0,0.0,0.0,0.0,0.0,0.0,0.0,0.0,0.0,0.0,0.0,0.0,0.0,0.0,0.0,0.0,0.0,0.0,0.0,0.0,0.0,0.0,0.0,0.0,0.0,0.0,0.0,0.0,0.0,0.0,0.0,0.0,0.0,0.0,0.0,0.0,0.0,0.0,0.0,0.0,0.0,0.0,0.0,0.0,0.0,0.0,0.0,0.0
1742680384962716317,1,499195852,camera_init,body,0.6432442279990811,0.014505459525690633,0.0078430819943235,-3.0782715006109215e-05,2.8362597210012302e-05,-0.0005039485505754113,0.9999998721419141,1.2181156927582037e-07,7.588842430155953e-10,5.42964360493827e-09,2.605700797484096e-08,-2.2946252623001762e-07,1.4931691647013245e-08,7.588826543796668e-10,1.3759966499549137e-09,-7.368347920628535e-11,2.880575278307873e-09,-1.0862613762993708e-09,4.119570665671313e-08,5.42964389884515e-09,-7.368327150682197e-11,2.277423138963286e-09,2.452888452682961e-09,-9.641315997475919e-08,-4.867980825501417e-10,2.605700823793617e-08,2.880134658544975e-09,2.452865068176824e-09,3.0083246884693438e-06,4.448735080147382e-08,2.686362215345399e-07,-2.2946252592470628e-07,-1.0862504597794042e-09,-9.641312954250525e-08,4.448735321975288e-08,7.381598826849967e-06,-1.3840935155244247e-07,1.4931691503031197e-08,4.1195690371129134e-08,-4.867977506064e-10,2.6863619929928806e-07,-1.3840935090560745e-07,2.0125714665919503e-06,0.0,0.0,0.0,0.0,0.0,0.0,0.0,0.0,0.0,0.0,0.0,0.0,0.0,0.0,0.0,0.0,0.0,0.0,0.0,0.0,0.0,0.0,0.0,0.0,0.0,0.0,0.0,0.0,0.0,0.0,0.0,0.0,0.0,0.0,0.0,0.0,0.0,0.0,0.0,0.0,0.0,0.0
1742680385060299739,2,598245855,camera_init,body,1.1372989752431577,0.01330006846543225,0.00843820924288873,0.000531649499774272,0.0004615046922744489,-0.0007734100860156244,0.9999994530993834,1.1177119728882887e-07,4.85943761617131e-10,6.283158781700477e-09,1.0715179113535338e-08,-2.7566272888871794e-07,-4.7882812546584735e-09,4.859437616136169e-10,1.106520217182441e-09,1.497674042537693e-10,4.299092982877121e-09,-4.069145523039508e-09,3.526565033233135e-08,6.283158781872415e-09,1.4976740426991417e-10,2.1077412928137526e-09,1.549198675567965e-10,-9.730533686782985e-08,2.8629822478228047e-09,1.0715179113551875e-08,4.299092983097561e-09,1.5491986755074815e-10,2.18402179382772e-06,6.096549166554956e-08,2.622939484111692e-07,-2.756627288883694e-07,-4.06914552335055e-09,-9.730533686433629e-08,6.09654916656494e-08,7.341642576026361e-06,-9.31574496642851e-08,-4.788281254638338e-09,3.526565033432723e-08,2.862982247686262e-09,2.6229394841046177e-07,-9.315744966517592e-08,1.8809545041138798e-06,0.0,0.0,0.0,0.0,0.0,0.0,0.0,0.0,0.0,0.0,0.0,0.0,0.0,0.0,0.0,0.0,0.0,0.0,0.0,0.0,0.0,0.0,0.0,0.0,0.0,0.0,0.0,0.0,0.0,0.0,0.0,0.0,0.0,0.0,0.0,0.0,0.0,0.0,0.0,0.0,0.0,0.0
1742680385158591448,3,699645857,camera_init,body,1.6325829583159963,0.0035397083412436556,-0.0021350524652094184,0.0010450098791797671,0.0007086113426752011,-0.0009523001853561666,0.9999987494735543,9.572203722906989e-08,9.43827209458816e-10,5.331473271698109e-09,-4.865646566636952e-09,-2.2949201039713935e-07,4.0170325401218605e-09,9.43827209509822e-10,8.864374198184295e-10,1.851828115999845e-10,2.269333119505545e-09,-6.977507049679219e-09,2.7323122919483995e-08,5.3314732715748045e-09,1.8518281159164373e-10,1.6555204708265767e-09,4.070518663166247e-11,-7.711752722560121e-08,4.226303279729493e-09,-4.865646564270627e-09,2.2693331242355886e-09,4.070518556524799e-11,1.6030439773232815e-06,6.282730706962774e-08,2.0502422710438352e-07,-2.2949201039707265e-07,-6.977507047981217e-09,-7.711752723007331e-08,6.28273071567675e-08,5.9245301005291255e-06,-2.0619605157409982e-07,4.017032540449834e-09,2.732312292058421e-08,4.226303279471743e-09,2.0502422665501137e-07,-2.0619605156818192e-07,1.5293732297102891e-06,0.0,0.0,0.0,0.0,0.0,0.0,0.0,0.0,0.0,0.0,0.0,0.0,0.0,0.0,0.0,0.0,0.0,0.0,0.0,0.0,0.0,0.0,0.0,0.0,0.0,0.0,0.0,0.0,0.0,0.0,0.0,0.0,0.0,0.0,0.0,0.0,0.0,0.0,0.0,0.0,0.0,0.0
1742680385258735185,4,798695845,camera_init,body,2.0965540640343048,0.00384024144734929,-0.002839647058067906,0.0007234680447783233,0.0009240446908451175,-0.0011834907642259292,0.9999986110415385,8.921353005916576e-08,9.548060301336821e-10,4.757900361543165e-09,-1.9164034790019235e-08,-1.892179795983731e-07,5.725169012483713e-09,9.548060303085975e-10,7.396137874715668e-10,1.4691338908691104e-10,1.4626395716153193e-09,-4.818066966669125e-09,2.207227366771607e-08,4.757900361371403e-09,1.4691338908490631e-10,1.5334097478177208e-09,3.8515774046327884e-10,-6.815198091885357e-08,3.125768194242918e-09,-1.9164034786866172e-08,1.4626395798022104e-09,3.8515771553748314e-10,1.2349438263795336e-06,9.187760037940701e-08,1.4241263586572643e-07,-1.8921797959915661e-07,-4.818066964197809e-09,-6.81519809188093e-08,9.187760043585385e-08,5.259630209575211e-06,-1.3616700654131125e-07,5.725169017494565e-09,2.2072273667169926e-08,3.125768192260448e-09,1.424126354813631e-07,-1.3616700654057672e-07,1.2787117166809034e-06,0.0,0.0,0.0,0.0,0.0,0.0,0.0,0.0,0.0,0.0,0.0,0.0,0.0,0.0,0.0,0.0,0.0,0.0,0.0,0.0,0.0,0.0,0.0,0.0,0.0,0.0,0.0,0.0,0.0,0.0,0.0,0.0,0.0,0.0,0.0,0.0,0.0,0.0,0.0,0.0,0.0,0.0
1742680385359853261,5,899695860,camera_init,body,2.5423233091419988,0.009442749976440122,-0.01099443764239991,0.00032999328624854586,0.0008879125072651339,-0.0011136877082179033,0.9999989312071773,9.663053869994788e-08,7.760128292234134e-10,4.955818610155821e-09,2.575200433195525e-09,-1.804690705686751e-07,4.023435890086425e-09,7.760128292463619e-10,7.810198588396617e-10,1.2241436922000973e-10,1.3293583331391962e-09,-4.314631502080482e-09,2.220287797253563e-08,4.955818609979728e-09,1.2241436920902542e-10,1.417241951853982e-09,-7.711300332167966e-10,-5.996403094865525e-08,2.684043902538345e-09,2.5752004341449826e-09,1.3293583359497574e-09,-7.711300327720927e-10,1.1081802385550352e-06,1.3407012493682618e-08,1.1118390321945498e-07,-1.804690705685259e-07,-4.314631501817371e-09,-5.996403095105767e-08,1.3407012527604143e-08,4.603250163147274e-06,-1.7304080770748605e-07,4.023435889272655e-09,2.220287797437731e-08,2.6840439025411904e-09,1.111839030666015e-07,-1.7304080769871444e-07,1.2719708835664141e-06,0.0,0.0,0.0,0.0,0.0,0.0,0.0,0.0,0.0,0.0,0.0,0.0,0.0,0.0,0.0,0.0,0.0,0.0,0.0,0.0,0.0,0.0,0.0,0.0,0.0,0.0,0.0,0.0,0.0,0.0,0.0,0.0,0.0,0.0,0.0,0.0,0.0,0.0,0.0,0.0,0.0,0.0
1742680385459673474,6,998345846,camera_init,body,2.960125129113099,0.0014938745133948824,-0.017342796781860566,0.0017416164212571217,0.0010394194190070248,-0.0011188082601486004,0.999997317320196,1.026412901918277e-07,4.632564868444071e-10,4.062312891314344e-09,1.23001342373196e-09,-1.7494300078088288e-07,-6.964529998373666e-09,4.6325648685984046e-10,7.50155900152696e-10,7.557605930414467e-11,8.329606784776048e-10,-2.784991060938119e-09,2.1998376910920907e-08,4.062312891234066e-09,7.557605930190316e-11,1.3109993438946096e-09,1.8381295390879744e-10,-5.64101278514262e-08,1.6770079153413962e-09,1.2300134237419466e-09,8.329606800859086e-10,1.8381295276155831e-10,1.0145787234549511e-06,-1.3910439079170146e-08,9.815364229542502e-08,-1.7494300078082073e-07,-2.784991060637241e-09,-5.6410127857023996e-08,-1.3910439075848339e-08,4.531342281401934e-06,-1.3079292621830328e-07,-6.964529998426839e-09,2.1998376910237232e-08,1.677007915484855e-09,9.815364228658234e-08,-1.307929262176871e-07,1.3065997595450695e-06,0.0,0.0,0.0,0.0,0.0,0.0,0.0,0.0,0.0,0.0,0.0,0.0,0.0,0.0,0.0,0.0,0.0,0.0,0.0,0.0,0.0,0.0,0.0,0.0,0.0,0.0,0.0,0.0,0.0,0.0,0.0,0.0,0.0,0.0,0.0,0.0,0.0,0.0,0.0,0.0,0.0,0.0
1742680385559468970,7,1099408351,camera_init,body,3.3845378078457764,0.006914691368440595,-0.024699241717155585,0.0019528826362083447,0.0010965337240667022,-0.0012836004533367982,0.9999966681109879,8.215718484786425e-08,5.937525040278723e-10,4.509756111578357e-09,-3.93560660328989e-09,-1.568542598029285e-07,3.174566648682535e-09,5.937525039977825e-10,6.856795125786898e-10,8.820587292146345e-11,1.09499480770026e-09,-3.4093631056007453e-09,2.009817816622216e-08,4.509756111494221e-09,8.820587292422894e-11,1.2194698489941327e-09,1.0722128153126972e-09,-5.3812617856685914e-08,2.2181659685530796e-09,-3.9356066034418365e-09,1.0949948078093154e-09,1.072212815263932e-09,9.200929086327476e-07,-6.70101445930307e-08,9.356938480167558e-08,-1.568542598028495e-07,-3.4093631059390613e-09,-5.3812617860738715e-08,-6.701014459719453e-08,4.271677075380753e-06,-1.5637824714811673e-07,3.174566648725717e-09,2.009817816650453e-08,2.2181659687839072e-09,9.356938480001325e-08,-1.5637824714891053e-07,1.2194513372744195e-06,0.0,0.0,0.0,0.0,0.0,0.0,0.0,0.0,0.0,0.0,0.0,0.0,0.0,0.0,0.0,0.0,0.0,0.0,0.0,0.0,0.0,0.0,0.0,0.0,0.0,0.0,0.0,0.0,0.0,0.0,0.0,0.0,0.0,0.0,0.0,0.0,0.0,0.0,0.0,0.0,0.0,0.0
1742680385656413728,8,1196570864,camera_init,body,3.7873217659346587,0.010003767599300425,-0.026196866792764634,0.002371628303741603,0.0010644952368622576,-0.0013552950075342795,0.9999957026930268,8.722480282538338e-08,2.236849731985082e-10,4.5085742884022636e-09,4.43454429680114e-09,-1.640243085799961e-07,-2.1213581430323405e-09,2.2368497327878695e-10,7.14345341390379e-10,3.757151726373279e-11,6.97184508802529e-10,-2.322113559725871e-09,2.0866104248539967e-08,4.50857428846597e-09,3.7571517239749624e-11,1.2844986336244587e-09,1.129163606882791e-09,-5.5900813004635827e-08,1.3191372789079826e-09,4.434544296552996e-09,6.971844975654723e-10,1.1291636071036523e-09,8.843089381185302e-07,-1.9632185314533254e-08,8.942401249111533e-08,-1.6402430858007402e-07,-2.3221135584764687e-09,-5.590081300127477e-08,-1.9632185316520128e-08,4.381102611369932e-06,-1.3048569300776316e-07,-2.121358143134168e-09,2.0866104246842166e-08,1.3191372787017743e-09,8.942401246827971e-08,-1.3048569300805737e-07,1.2091913877079849e-06,0.0,0.0,0.0,0.0,0.0,0.0,0.0,0.0,0.0,0.0,0.0,0.0,0.0,0.0,0.0,0.0,0.0,0.0,0.0,0.0,0.0,0.0,0.0,0.0,0.0,0.0,0.0,0.0,0.0,0.0,0.0,0.0,0.0,0.0,0.0,0.0,0.0,0.0,0.0,0.0,0.0,0.0
1742680385751674114,9,1298583354,camera_init,body,4.215100979213169,0.011632838096961267,-0.025731091426827644,0.0016323563757797749,0.0010683294637775407,-0.0013650278369683104,0.9999971653878935,8.675098983422893e-08,6.738930124124006e-10,4.196063631361799e-09,4.355425640074917e-10,-1.639158307010001e-07,8.047846327906863e-09,6.738930124530351e-10,6.538495404015496e-10,6.590332472354921e-11,1.0904011918180131e-09,-3.4871588222531613e-09,1.9610277999209173e-08,4.1960636312461955e-09,6.590332471807728e-11,1.2350259694118263e-09,-5.241657177111522e-10,-5.432818947136993e-08,1.922120243863648e-09,4.3554256416565857e-10,1.0904011922773167e-09,-5.24165717693553e-10,8.475747638785885e-07,2.9733706035467628e-08,7.826832153209394e-08,-1.6391583070089008e-07,-3.4871588219462657e-09,-5.432818947389973e-08,2.9733706038333084e-08,4.357725808924429e-06,-1.613982358942608e-07,8.047846327861242e-09,1.9610277998517376e-08,1.922120243876209e-09,7.826832150160108e-08,-1.6139823589453308e-07,1.200848480402417e-06,0.0,0.0,0.0,0.0,0.0,0.0,0.0,0.0,0.0,0.0,0.0,0.0,0.0,0.0,0.0,0.0,0.0,0.0,0.0,0.0,0.0,0.0,0.0,0.0,0.0,0.0,0.0,0.0,0.0,0.0,0.0,0.0,0.0,0.0,0.0,0.0,0.0,0.0,0.0,0.0,0.0,0.0
1742680385858853772,10,1399520854,camera_init,body,4.648189975504611,0.00799536527020936,-0.021659593801985837,0.0016209088792886136,0.0012195003588111749,-0.0013716087336603528,0.999997002076886,8.2420901996379e-08,4.909258124437894e-10,4.139285026515788e-09,3.482414482978677e-10,-1.5205759293692686e-07,7.807616090229116e-10,4.909258124890092e-10,6.696461015161096e-10,6.579788625426366e-11,3.368428935603025e-10,-3.3940141559134232e-09,2.0109984003748724e-08,4.139285026499536e-09,6.579788624522917e-11,1.1516279024560662e-09,5.174320342743976e-10,-5.346226521038644e-08,1.749765655037092e-09,3.4824144830543333e-10,3.3684289127987805e-10,5.174320351953267e-10,8.316853815699958e-07,-2.7862913200887553e-08,7.492206803685984e-08,-1.5205759293690833e-07,-3.3940141551838193e-09,-5.346226521124585e-08,-2.7862913197173803e-08,4.427501747296572e-06,-1.3776679391461483e-07,7.80761608929273e-10,2.0109984001975523e-08,1.7497656550436495e-09,7.492206800958915e-08,-1.3776679391142612e-07,1.219295832980217e-06,0.0,0.0,0.0,0.0,0.0,0.0,0.0,0.0,0.0,0.0,0.0,0.0,0.0,0.0,0.0,0.0,0.0,0.0,0.0,0.0,0.0,0.0,0.0,0.0,0.0,0.0,0.0,0.0,0.0,0.0,0.0,0.0,0.0,0.0,0.0,0.0,0.0,0.0,0.0,0.0,0.0,0.0
1742680385959225343,11,1499533357,camera_init,body,5.091352062427093,0.016348258505585817,-0.027370473211727794,0.0022953894605072527,0.0011312373217156936,-0.001498095651126647,0.9999956035897183,8.365410090612163e-08,2.810538393319563e-10,3.782694893020528e-09,3.282570324270408e-09,-1.448488114606253e-07,-9.578244327706515e-09,2.8105383930150907e-10,6.753772150301022e-10,6.616502591961641e-11,2.1786330261365264e-11,-3.326908647380402e-09,2.000973093934417e-08,3.782694893105082e-09,6.616502592211615e-11,1.175809780222276e-09,9.687851898059647e-11,-5.254452331869551e-08,1.6991450535335565e-09,3.282570324167754e-09,2.1786342207600315e-11,9.687851834230007e-11,7.988623516352709e-07,3.290952627645731e-08,6.362455793740138e-08,-1.448488114605604e-07,-3.3269086471687734e-09,-5.254452331852157e-08,3.2909526280698694e-08,4.241261821598258e-06,-1.5329137517422277e-07,-9.578244327865854e-09,2.000973093874391e-08,1.6991450535270563e-09,6.362455791742375e-08,-1.5329137517329424e-07,1.2160087481944295e-06,0.0,0.0,0.0,0.0,0.0,0.0,0.0,0.0,0.0,0.0,0.0,0.0,0.0,0.0,0.0,0.0,0.0,0.0,0.0,0.0,0.0,0.0,0.0,0.0,0.0,0.0,0.0,0.0,0.0,0.0,0.0,0.0,0.0,0.0,0.0,0.0,0.0,0.0,0.0,0.0,0.0,0.0
1742680386060689817,12,1598683363,camera_init,body,5.541468561356067,0.03141505528896711,-0.03591378855568527,0.0009324765024093267,0.001011642386203134,-0.0016156278006936955,0.9999977484044962,7.972620469157279e-08,1.3258641507687642e-10,4.120964231402959e-09,6.162370901229558e-09,-1.4222630806660254e-07,-9.205572713971795e-09,1.325864150037082e-10,7.184672315025948e-10,6.489898532277997e-11,3.8343783581990643e-10,-3.117518730284904e-09,2.1248891874772312e-08,4.120964231482465e-09,6.489898532951482e-11,1.253348069908233e-09,2.5820302917875963e-10,-5.42474555886926e-08,1.591049139247156e-09,6.162370901067826e-09,3.834378564653816e-10,2.582030302069807e-10,7.703716135396973e-07,1.9619937464781122e-08,6.70641799899334e-08,-1.4222630806660286e-07,-3.1175187294275386e-09,-5.424745558648482e-08,1.9619937468225714e-08,4.247556507601813e-06,-1.4125951306788529e-07,-9.205572714169201e-09,2.1248891875324168e-08,1.5910491391623184e-09,6.7064179975497e-08,-1.4125951306644088e-07,1.2348122113723688e-06,0.0,0.0,0.0,0.0,0.0,0.0,0.0,0.0,0.0,0.0,0.0,0.0,0.0,0.0,0.0,0.0,0.0,0.0,0.0,0.0,0.0,0.0,0.0,0.0,0.0,0.0,0.0,0.0,0.0,0.0,0.0,0.0,0.0,0.0,0.0,0.0,0.0,0.0,0.0,0.0,0.0,0.0
1742680386159884237,13,1696845843,camera_init,body,5.998950813180066,0.02659522412038272,-0.03711678657986534,0.0008300299867490572,0.0010782640080049218,-0.0013567740128862618,0.9999981537789089,7.93844142484636e-08,5.941694701304452e-10,4.025414774636221e-09,3.021362885047277e-11,-1.457610336706514e-07,-3.0841669237444957e-09,5.941694702215373e-10,6.680404387359113e-10,1.1703509242714126e-10,4.639586147165358e-10,-4.123053034120653e-09,2.0010093848457668e-08,4.025414774615489e-09,1.170350924029715e-10,1.1931763357358083e-09,4.654751743859049e-10,-5.234712900583418e-08,2.5697815752208616e-09,3.021362889619104e-11,4.639585945416933e-10,4.6547517685304757e-10,7.736278830320404e-07,8.757254299042492e-10,6.812349520154763e-08,-1.4576103367056924e-07,-4.1230530327451525e-09,-5.234712900710543e-08,8.757254330336522e-10,4.142727306751832e-06,-1.6288177519542227e-07,-3.084166923790467e-09,2.0010093847081445e-08,2.5697815752889882e-09,6.81234951903722e-08,-1.6288177519404645e-07,1.235017258928727e-06,0.0,0.0,0.0,0.0,0.0,0.0,0.0,0.0,0.0,0.0,0.0,0.0,0.0,0.0,0.0,0.0,0.0,0.0,0.0,0.0,0.0,0.0,0.0,0.0,0.0,0.0,0.0,0.0,0.0,0.0,0.0,0.0,0.0,0.0,0.0,0.0,0.0,0.0,0.0,0.0,0.0,0.0
1742680386260989072,14,1799020834,camera_init,body,6.481373459774148,0.03556387155893375,-0.04086786396280603,0.0008924408462936537,0.0010091388130207036,-0.0013547685995809302,0.9999981748934507,7.727772314075555e-08,2.5445471373469837e-10,4.0360510374656125e-09,2.233310969164356e-09,-1.4202629464845344e-07,-5.3254272471913134e-09,2.5445471364307596e-10,6.660077975500101e-10,2.3159400409681972e-11,3.0527199716157516e-10,-1.4425535463945704e-09,2.047460266087964e-08,4.036051037597167e-09,2.3159400425173384e-11,1.238702815003329e-09,-5.842917359096541e-10,-5.299048847431162e-08,3.930510302236827e-10,2.2333109691336292e-09,3.052719976704302e-10,-5.842917351738231e-10,7.480780310236599e-07,2.4017824592533243e-08,6.479212315628816e-08,-1.42026294648449e-07,-1.4425535467912688e-09,-5.2990488472624555e-08,2.4017824594386068e-08,4.085652257474273e-06,-7.255865872247232e-08,-5.325427247275502e-09,2.0474602660458762e-08,3.930510302947524e-10,6.479212314748332e-08,-7.255865872161464e-08,1.2514502941987827e-06,0.0,0.0,0.0,0.0,0.0,0.0,0.0,0.0,0.0,0.0,0.0,0.0,0.0,0.0,0.0,0.0,0.0,0.0,0.0,0.0,0.0,0.0,0.0,0.0,0.0,0.0,0.0,0.0,0.0,0.0,0.0,0.0,0.0,0.0,0.0,0.0,0.0,0.0,0.0,0.0,0.0,0.0
1742680386359613066,15,1898158351,camera_init,body,6.960634153487287,0.03711464935246076,-0.03634533984625998,0.00031594893801069736,0.0011562927903591856,-0.0011687729023043287,0.9999985985655945,8.011142514971871e-08,2.657736226687512e-10,3.5145139184001493e-09,4.331140557329498e-11,-1.2679226138843775e-07,-7.194382965628085e-09,2.6577362267405127e-10,6.589300863776046e-10,7.83100136809823e-11,6.8092935321868e-10,-2.8401524221539063e-09,2.041641615576513e-08,3.514513918341201e-09,7.831001368781647e-11,1.1101011805077872e-09,4.2760012724202517e-10,-5.083982039277414e-08,1.6964663014128608e-09,4.3311405576678974e-11,6.809293336675713e-10,4.276001309973147e-10,7.376126870662976e-07,6.876181469151416e-10,7.697605645479034e-08,-1.267922613885306e-07,-2.840152422691971e-09,-5.083982039250594e-08,6.87618148677784e-10,4.189061706568285e-06,-9.873506051297433e-08,-7.194382965656315e-09,2.041641615484824e-08,1.6964663012531721e-09,7.697605644747649e-08,-9.87350605120358e-08,1.253128346748673e-06,0.0,0.0,0.0,0.0,0.0,0.0,0.0,0.0,0.0,0.0,0.0,0.0,0.0,0.0,0.0,0.0,0.0,0.0,0.0,0.0,0.0,0.0,0.0,0.0,0.0,0.0,0.0,0.0,0.0,0.0,0.0,0.0,0.0,0.0,0.0,0.0,0.0,0.0,0.0,0.0,0.0,0.0
1742680386461625650,16,1998545863,camera_init,body,7.448261869241665,0.041787767998337694,-0.04021983597140868,0.0004522240430905373,0.0009419761669047176,-0.0010310085471691567,0.9999989225972641,7.259297031091664e-08,4.152552885172067e-11,3.828789047546968e-09,1.4287748888230716e-10,-1.2516297859179e-07,-7.976792973405514e-09,4.1525528833491136e-11,6.364254060141654e-10,3.076427597634362e-11,1.0282718479717027e-09,-1.2246211895215037e-09,1.9511594004541108e-08,3.828789047559209e-09,3.076427597437739e-11,1.174500877562895e-09,2.835198447234552e-10,-5.2118729920270726e-08,5.509372938352551e-10,1.428774888697274e-10,1.0282718480475121e-09,2.8351984473918985e-10,7.268104553581887e-07,-5.712718379853219e-09,7.745500854813089e-08,-1.2516297859176373e-07,-1.2246211893843398e-09,-5.2118729923970546e-08,-5.712718378665389e-09,4.191765933632358e-06,-4.807165862279242e-08,-7.976792973433537e-09,1.9511594003243206e-08,5.509372938497398e-10,7.745500854198191e-08,-4.8071658622009075e-08,1.211526149523995e-06,0.0,0.0,0.0,0.0,0.0,0.0,0.0,0.0,0.0,0.0,0.0,0.0,0.0,0.0,0.0,0.0,0.0,0.0,0.0,0.0,0.0,0.0,0.0,0.0,0.0,0.0,0.0,0.0,0.0,0.0,0.0,0.0,0.0,0.0,0.0,0.0,0.0,0.0,0.0,0.0,0.0,0.0
1742680386560728555,17,2099145861,camera_init,body,7.943209794096917,0.04116741280131385,-0.04241158046149785,0.000780469733501674,0.0009272682355816362,-0.0008884244998431448,0.9999988708706226,7.02470294316031e-08,-3.853464795459314e-11,3.414097927447879e-09,-3.770767847810364e-09,-1.264798995564076e-07,-1.3113533633281864e-08,-3.853464777964664e-11,6.0922838968731e-10,5.14365394637257e-11,3.0839007769543754e-10,-1.877163815130683e-09,1.880154305049522e-08,3.414097927273095e-09,5.1436539457905426e-11,1.068200082343174e-09,3.055429199624782e-10,-4.9139139513027304e-08,9.924343789946473e-10,-3.770767847850613e-09,3.083900679396297e-10,3.055429223835068e-10,6.95227182991305e-07,-4.835534879835545e-09,5.926056699165014e-08,-1.2647989955627196e-07,-1.8771638145860167e-09,-4.913913951670815e-08,-4.835534878799323e-09,4.015666922465176e-06,-6.1215304827238e-08,-1.311353363327762e-08,1.880154305176817e-08,9.924343789508586e-10,5.926056698655245e-08,-6.121530482664796e-08,1.1690724495105087e-06,0.0,0.0,0.0,0.0,0.0,0.0,0.0,0.0,0.0,0.0,0.0,0.0,0.0,0.0,0.0,0.0,0.0,0.0,0.0,0.0,0.0,0.0,0.0,0.0,0.0,0.0,0.0,0.0,0.0,0.0,0.0,0.0,0.0,0.0,0.0,0.0,0.0,0.0,0.0,0.0,0.0,0.0
1742680386660855055,18,2199533358,camera_init,body,8.435494346080644,0.04156455743528239,-0.05075282711950716,0.0015265954534126845,0.0007461865286565858,-0.0008241081563177762,0.999998216777275,6.408447340565832e-08,-2.743636732591786e-10,3.1150506477840035e-09,-1.811350679907125e-09,-1.0323102746234904e-07,-1.3899462446088435e-08,-2.7436367331504695e-10,6.165251805579459e-10,4.550642669022012e-11,3.270176462517105e-10,-1.4709759323784347e-09,1.9304617751894435e-08,3.115050647740022e-09,4.550642669304305e-11,9.963466186531204e-10,5.727652457461245e-10,-4.685898239333088e-08,1.0789902646322358e-09,-1.8113506799481607e-09,3.270176305399905e-10,5.727652467429366e-10,6.870222894951746e-07,4.568030922578907e-09,5.971963374624255e-08,-1.0323102746232628e-07,-1.4709759333113563e-09,-4.685898239269957e-08,4.5680309234609365e-09,3.96774155214679e-06,-7.010147842198288e-08,-1.3899462446087946e-08,1.9304617750826906e-08,1.078990264665674e-09,5.971963374143581e-08,-7.010147842153861e-08,1.2135978818253412e-06,0.0,0.0,0.0,0.0,0.0,0.0,0.0,0.0,0.0,0.0,0.0,0.0,0.0,0.0,0.0,0.0,0.0,0.0,0.0,0.0,0.0,0.0,0.0,0.0,0.0,0.0,0.0,0.0,0.0,0.0,0.0,0.0,0.0,0.0,0.0,0.0,0.0,0.0,0.0,0.0,0.0,0.0
1742680386761702429,19,2299195864,camera_init,body,8.929353444649735,0.04464222851182995,-0.05663092695981239,0.0015435008688044272,0.0006414586869863529,-0.0008846410535343253,0.9999982117714133,6.945069456028096e-08,-7.120297643103292e-11,3.4297700993823896e-09,2.2908159591107117e-10,-1.2110414380197735e-07,-1.304722312268612e-08,-7.120297643214098e-11,6.248429346362213e-10,1.2711717767458033e-11,4.470633777151465e-10,-1.6729109853616658e-09,1.9066188413669544e-08,3.4297700992669144e-09,1.2711717764713125e-11,1.0842277853455903e-09,-2.6917473902583377e-11,-4.789508698700702e-08,2.5343519693541084e-10,2.2908159583774906e-10,4.470633929056236e-10,-2.691747404211551e-11,6.896191286052227e-07,-3.250454384651333e-09,6.469890519979486e-08,-1.211041438019028e-07,-1.6729109852498025e-09,-4.789508698799641e-08,-3.2504543839772967e-09,3.878444700612762e-06,-5.4788299886645767e-08,-1.3047223122701711e-08,1.9066188413250627e-08,2.5343519694580953e-10,6.469890519566191e-08,-5.4788299886225334e-08,1.1744662236170566e-06,0.0,0.0,0.0,0.0,0.0,0.0,0.0,0.0,0.0,0.0,0.0,0.0,0.0,0.0,0.0,0.0,0.0,0.0,0.0,0.0,0.0,0.0,0.0,0.0,0.0,0.0,0.0,0.0,0.0,0.0,0.0,0.0,0.0,0.0,0.0,0.0,0.0,0.0,0.0,0.0,0.0,0.0
1742680386860094326,20,2399195864,camera_init,body,9.422871898880496,0.04538447063482951,-0.0633588603486725,0.002476851505345639,0.0004840003483511052,-0.0009731414039313696,0.9999963419663535,6.224079027615981e-08,-5.978714816373277e-10,3.0555446343529244e-09,-2.1988375386263864e-09,-1.1092591118650135e-07,-2.4656357802790068e-08,-5.978714816564685e-10,6.175825062394898e-10,-3.150749511062697e-12,4.658313478238837e-10,1.3194343349008143e-11,1.9305297318339997e-08,3.0555446343551813e-09,-3.1507495131287698e-12,1.1101712329785558e-09,7.816088152052946e-11,-5.0128879493956034e-08,-4.2014464412602244e-10,-2.1988375386929546e-09,4.658313478524711e-10,7.816088152585981e-11,6.841604173833237e-07,7.453722596071659e-09,5.766130212829758e-08,-1.109259111865617e-07,1.3194343405437577e-11,-5.012887949420429e-08,7.453722596545635e-09,4.047273783335063e-06,-5.601633773119851e-09,-2.4656357802800553e-08,1.9305297316899654e-08,-4.2014464404470966e-10,5.766130212440021e-08,-5.601633772770755e-09,1.2088126619075766e-06,0.0,0.0,0.0,0.0,0.0,0.0,0.0,0.0,0.0,0.0,0.0,0.0,0.0,0.0,0.0,0.0,0.0,0.0,0.0,0.0,0.0,0.0,0.0,0.0,0.0,0.0,0.0,0.0,0.0,0.0,0.0,0.0,0.0,0.0,0.0,0.0,0.0,0.0,0.0,0.0,0.0,0.0
1742680386957787583,21,2497520841,camera_init,body,9.917397545652165,0.041333826286675354,-0.06493313046613343,0.001798182811630834,0.0004613770980699188,-0.0012527960202360037,0.9999974920827943,6.663906215938784e-08,-1.3391402043501307e-10,3.6823568479341747e-09,-9.149302731167843e-10,-1.2604817315452717e-07,-1.4420196237085702e-08,-1.339140204364136e-10,6.023414655644205e-10,2.5956254027911694e-11,2.183965945214568e-10,-1.107608408411376e-09,1.8659937007649342e-08,3.6823568481057985e-09,2.595625403143692e-11,1.131427947147635e-09,2.8981246070253117e-10,-5.189306362269023e-08,8.531692834304706e-11,-9.149302730709982e-10,2.18396582880683e-10,2.8981246117903683e-10,6.788150339383767e-07,9.882464811953549e-09,4.8574972566574754e-08,-1.2604817315436359e-07,-1.107608408707655e-09,-5.189306362523276e-08,9.882464812492488e-09,4.151423790010141e-06,-2.2227028553894736e-08,-1.4420196237086496e-08,1.8659937007438444e-08,8.531692828659426e-11,4.857497256299584e-08,-2.222702855358481e-08,1.187799497887428e-06,0.0,0.0,0.0,0.0,0.0,0.0,0.0,0.0,0.0,0.0,0.0,0.0,0.0,0.0,0.0,0.0,0.0,0.0,0.0,0.0,0.0,0.0,0.0,0.0,0.0,0.0,0.0,0.0,0.0,0.0,0.0,0.0,0.0,0.0,0.0,0.0,0.0,0.0,0.0,0.0,0.0,0.0
1742680387056487698,22,2599745848,camera_init,body,10.437605242959439,0.04294049195805821,-0.06467196312264704,0.002007568472994899,0.000497702699940346,-0.0017013745596615717,0.999996413636296,6.370818224974952e-08,-1.0010788872412012e-10,2.8134480951787355e-09,-5.534160789991101e-10,-1.010222854416647e-07,-1.1639589362724656e-08,-1.001078888271301e-10,6.296563110995803e-10,2.458777930118244e-11,3.459621195212091e-10,-5.937258892984047e-10,1.911950315003649e-08,2.8134480952085264e-09,2.458777930125311e-11,1.0439345218146386e-09,4.741923623151633e-10,-4.876273500655776e-08,3.095286387955359e-12,-5.534160789949436e-10,3.4596208560526873e-10,4.741923626469752e-10,6.712107529625084e-07,-4.2039312947889e-09,5.269971499551908e-08,-1.0102228544172886e-07,-5.937258912254659e-10,-4.876273500547782e-08,-4.20393129442675e-09,4.044725796711845e-06,9.223676754619535e-09,-1.1639589362730466e-08,1.9119503145562108e-08,3.0952864664829233e-12,5.269971499220496e-08,9.223676754964999e-09,1.1748466199562671e-06,0.0,0.0,0.0,0.0,0.0,0.0,0.0,0.0,0.0,0.0,0.0,0.0,0.0,0.0,0.0,0.0,0.0,0.0,0.0,0.0,0.0,0.0,0.0,0.0,0.0,0.0,0.0,0.0,0.0,0.0,0.0,0.0,0.0,0.0,0.0,0.0,0.0,0.0,0.0,0.0,0.0,0.0
1742680387159655296,23,2699370852,camera_init,body,10.951701554754324,0.042911309950049936,-0.06681204346933431,0.003355057250086852,0.00040310446443552074,-0.001952071979297649,0.9999923852273197,6.212326347765205e-08,-1.5290810384299867e-10,2.820721838374242e-09,-2.8901746522740287e-09,-8.982910503315444e-08,-1.2667789969428935e-08,-1.5290810384509656e-10,5.811626824651418e-10,1.6548592793506586e-11,4.319163761229419e-10,-4.04977781086802e-10,1.811996567125361e-08,2.820721838310181e-09,1.654859279099535e-11,1.004507186360814e-09,3.907610321456017e-11,-4.776141254244964e-08,-8.685972710194358e-11,-2.8901746522970144e-09,4.3191637611013054e-10,3.9076103201790156e-11,6.643129846025407e-07,1.6071186919212435e-08,5.291972145803752e-08,-8.98291050330906e-08,-4.0497778100350204e-10,-4.776141254712087e-08,1.6071186919595046e-08,4.05880471032935e-06,-3.5281824624727716e-09,-1.2667789969426953e-08,1.811996566921835e-08,-8.685972702436954e-11,5.2919721455097985e-08,-3.528182462273024e-09,1.1723828470794895e-06,0.0,0.0,0.0,0.0,0.0,0.0,0.0,0.0,0.0,0.0,0.0,0.0,0.0,0.0,0.0,0.0,0.0,0.0,0.0,0.0,0.0,0.0,0.0,0.0,0.0,0.0,0.0,0.0,0.0,0.0,0.0,0.0,0.0,0.0,0.0,0.0,0.0,0.0,0.0,0.0,0.0,0.0
1742680387261529661,24,2797370867,camera_init,body,11.462424658715692,0.036343157360781496,-0.07338601027232315,0.003483026722492413,0.0005477043829253258,-0.0021645724058705494,0.9999914415489044,6.548179067548406e-08,-1.082053249911634e-10,2.858605922812838e-09,-4.307854574598938e-09,-1.0689567243421583e-07,-7.98883472596643e-09,-1.0820532499658712e-10,5.917748600040495e-10,3.3273412379083475e-11,5.218960751127141e-10,-8.0574611414241e-10,1.832061352395881e-08,2.858605922884918e-09,3.3273412378187594e-11,9.966710970462224e-10,-2.2360312598010614e-10,-4.734211396679994e-08,2.7669515121233994e-10,-4.307854574608237e-09,5.218960751114436e-10,-2.2360312596761323e-10,6.465154906230738e-07,1.073613117882043e-08,5.794770382914739e-08,-1.0689567243419889e-07,-8.057461140983307e-10,-4.734211396631748e-08,1.0736131179152282e-08,3.934791298431118e-06,-2.248254414102625e-09,-7.988834725959179e-09,1.832061352428486e-08,2.7669515122333756e-10,5.794770382666863e-08,-2.2482544138865374e-09,1.1279655040625863e-06,0.0,0.0,0.0,0.0,0.0,0.0,0.0,0.0,0.0,0.0,0.0,0.0,0.0,0.0,0.0,0.0,0.0,0.0,0.0,0.0,0.0,0.0,0.0,0.0,0.0,0.0,0.0,0.0,0.0,0.0,0.0,0.0,0.0,0.0,0.0,0.0,0.0,0.0,0.0,0.0,0.0,0.0
1742680387362184848,25,2898883341,camera_init,body,11.994118746842325,0.04336721671388212,-0.07931417143267323,0.0020114497409567562,0.0008020870338008271,-0.0023689488832164198,0.9999948493904935,7.056659960519009e-08,-4.07880370870895e-12,3.0778381467356827e-09,-6.372492687374017e-09,-1.1585008046088047e-07,-4.780190640155445e-09,-4.078803784749544e-12,6.198060389716676e-10,2.7261886103750487e-11,2.0559074493791246e-10,-8.112303373421208e-10,1.900966067756967e-08,3.0778381468782737e-09,2.7261886108915903e-11,1.0521365291591561e-09,-4.2275520094298385e-10,-4.814012765904014e-08,8.708032306506705e-11,-6.3724926873512676e-09,2.0559070650739237e-10,-4.227551994297992e-10,6.334520242205737e-07,2.2214572431180017e-08,4.327326829032008e-08,-1.1585008046084754e-07,-8.112303375037279e-10,-4.814012766065032e-08,2.2214572431456018e-08,3.912614965358871e-06,1.72521975987583e-08,-4.780190640139308e-09,1.9009660675961737e-08,8.708032313791333e-11,4.327326828788543e-08,1.7252197598940297e-08,1.1697390971033154e-06,0.0,0.0,0.0,0.0,0.0,0.0,0.0,0.0,0.0,0.0,0.0,0.0,0.0,0.0,0.0,0.0,0.0,0.0,0.0,0.0,0.0,0.0,0.0,0.0,0.0,0.0,0.0,0.0,0.0,0.0,0.0,0.0,0.0,0.0,0.0,0.0,0.0,0.0,0.0,0.0,0.0,0.0
1742680387456821732,26,2999295840,camera_init,body,12.529190604122098,0.046441462912825054,-0.08870855747207328,0.0015240890325576662,0.0009268584567677083,-0.0024012094445591036,0.9999955261296035,6.821186954453229e-08,-3.719821338450847e-11,3.3756739182397686e-09,5.577491476786379e-09,-1.149244282031321e-07,-8.516743526604766e-09,-3.7198213377187885e-11,6.499651906369686e-10,3.713619646521867e-11,1.374335431015965e-10,-6.880288766181818e-10,1.9746247697688015e-08,3.3756739181885107e-09,3.71361964657685e-11,1.1103998336930315e-09,1.8281126568694523e-10,-5.018178122550361e-08,-1.1304058751931605e-10,5.577491476779226e-09,1.3743354313537193e-10,1.8281126569940754e-10,6.380892547873913e-07,1.6043273721341766e-08,3.3786822083785005e-08,-1.1492442820308816e-07,-6.880288767513053e-10,-5.0181781226942426e-08,1.604327372157317e-08,4.026138412142923e-06,4.0302561925652517e-08,-8.516743526634629e-09,1.974624769765659e-08,-1.1304058746595938e-10,3.378682208150421e-08,4.0302561925876914e-08,1.2229221412646804e-06,0.0,0.0,0.0,0.0,0.0,0.0,0.0,0.0,0.0,0.0,0.0,0.0,0.0,0.0,0.0,0.0,0.0,0.0,0.0,0.0,0.0,0.0,0.0,0.0,0.0,0.0,0.0,0.0,0.0,0.0,0.0,0.0,0.0,0.0,0.0,0.0,0.0,0.0,0.0,0.0,0.0,0.0
1742680387558973688,27,3098470843,camera_init,body,13.062374465240444,0.04875297018005597,-0.09518219032022768,0.0017721939075510432,0.001294900847713457,-0.0024078347532847637,0.9999946924320883,7.052906412041926e-08,1.8524991512940462e-10,3.2334082723465384e-09,-3.5750149694126117e-10,-1.1994463319349231e-07,-2.3182911015663895e-09,1.8524991512602333e-10,6.035445388228406e-10,6.351754244467884e-11,2.704979688152595e-10,-2.166137600518469e-09,1.8539119029490484e-08,3.233408272492899e-09,6.351754244698578e-11,1.060896209348751e-09,3.3644331673272347e-10,-4.922771065059121e-08,1.1549531326732603e-09,-3.575014969359639e-10,2.7049796880541275e-10,3.3644331672462537e-10,6.247304921494448e-07,7.771166417430248e-09,3.352693898441858e-08,-1.1994463319358443e-07,-2.166137600467316e-09,-4.9227710648649244e-08,7.77116641778669e-09,4.027133361532894e-06,-3.96046559082734e-08,-2.318291101573069e-09,1.8539119028414236e-08,1.1549531326590338e-09,3.352693898247819e-08,-3.9604655908064856e-08,1.1783986884866805e-06,0.0,0.0,0.0,0.0,0.0,0.0,0.0,0.0,0.0,0.0,0.0,0.0,0.0,0.0,0.0,0.0,0.0,0.0,0.0,0.0,0.0,0.0,0.0,0.0,0.0,0.0,0.0,0.0,0.0,0.0,0.0,0.0,0.0,0.0,0.0,0.0,0.0,0.0,0.0,0.0,0.0,0.0
1742680387662569986,28,3199245845,camera_init,body,13.60787700735676,0.05330107501120453,-0.11019872948411391,0.0013216842350452396,0.001527634689872328,-0.002316254201121998,0.999995277213603,6.929917566447574e-08,2.749131769720572e-10,3.904704072521627e-09,-4.6777619695605385e-09,-1.3446552303000003e-07,-2.2579779544759155e-09,2.749131769812296e-10,6.127791202993507e-10,1.2048713815222127e-11,3.0097875674460525e-10,-7.06532164321408e-10,1.8833231876975868e-08,3.904704072546123e-09,1.2048713817080866e-11,1.195681052154347e-09,-4.118972300462018e-11,-5.285063091310829e-08,-3.633457740861514e-10,-4.677761969557205e-09,3.0097875671612377e-10,-4.1189722995040604e-11,6.184593138675341e-07,-1.109778273771652e-08,4.744054021516603e-08,-1.3446552302994147e-07,-7.065321643181183e-10,-5.28506309106496e-08,-1.1097782737532916e-08,4.022959611975589e-06,3.038725937694593e-08,-2.257977954471427e-09,1.8833231875763658e-08,-3.6334577411718104e-10,4.74405402133574e-08,3.038725937719127e-08,1.1731068895630661e-06,0.0,0.0,0.0,0.0,0.0,0.0,0.0,0.0,0.0,0.0,0.0,0.0,0.0,0.0,0.0,0.0,0.0,0.0,0.0,0.0,0.0,0.0,0.0,0.0,0.0,0.0,0.0,0.0,0.0,0.0,0.0,0.0,0.0,0.0,0.0,0.0,0.0,0.0,0.0,0.0,0.0,0.0
1742680387757817259,29,3299158366,camera_init,body,14.156611274664161,0.05768506717003992,-0.11963921888202284,0.0009222448795060317,0.001983703182053175,-0.0023113284004466395,0.9999949360607235,6.9615367976887e-08,1.1292990530588822e-10,3.6174279571231572e-09,-4.793034321624792e-10,-1.2895623797929324e-07,-1.8719716322019487e-09,1.1292990528907169e-10,6.487669789139849e-10,5.3475161918478835e-11,-4.594185748543666e-13,-1.04555745949378e-09,1.946552799216982e-08,3.6174279571257595e-09,5.347516192867133e-11,1.1754728789593666e-09,1.9263688148624e-10,-5.2578527136565304e-08,4.272589825390508e-10,-4.793034321152009e-10,-4.59380529734266e-13,1.9263687874182264e-10,6.04979897931841e-07,-2.2418323148260792e-08,3.352544371328149e-08,-1.289562379792062e-07,-1.04555746024947e-09,-5.257852713570589e-08,-2.241832314807382e-08,4.08022544499314e-06,3.043711554080683e-08,-1.8719716322024467e-09,1.9465527992745473e-08,4.272589824150336e-10,3.352544371171431e-08,3.0437115541050134e-08,1.1706846349895547e-06,0.0,0.0,0.0,0.0,0.0,0.0,0.0,0.0,0.0,0.0,0.0,0.0,0.0,0.0,0.0,0.0,0.0,0.0,0.0,0.0,0.0,0.0,0.0,0.0,0.0,0.0,0.0,0.0,0.0,0.0,0.0,0.0,0.0,0.0,0.0,0.0,0.0,0.0,0.0,0.0,0.0,0.0
1742680387859814509,30,3399620848,camera_init,body,14.711447047536659,0.06257248728272984,-0.13168248693794254,0.000690744366907054,0.0022501604135549322,-0.0022874028124266928,0.9999946137048457,7.236606687874319e-08,-1.6530011944190823e-10,4.13425575661952e-09,-4.8455861261239706e-09,-1.403697870402771e-07,-4.354038502422109e-09,-1.6530011942873672e-10,6.873425831524136e-10,3.315461214154369e-11,7.968943841555041e-10,-4.3468796570860986e-10,2.0035167238661592e-08,4.1342557564668174e-09,3.3154612139930735e-11,1.2583498064616498e-09,-5.181386182851529e-10,-5.4313605107046914e-08,5.039072718727698e-10,-4.845586126121705e-09,7.96894384178374e-10,-5.181386182855599e-10,6.130177958989738e-07,4.463615684820923e-08,4.310306614597901e-08,-1.403697870403723e-07,-4.346879657080474e-10,-5.431360510738196e-08,4.463615684843412e-08,4.0828799391005e-06,-4.071347757238116e-09,-4.354038502412811e-09,2.0035167238648595e-08,5.039072718473359e-10,4.310306614446765e-08,-4.071347757198359e-09,1.1693479239335932e-06,0.0,0.0,0.0,0.0,0.0,0.0,0.0,0.0,0.0,0.0,0.0,0.0,0.0,0.0,0.0,0.0,0.0,0.0,0.0,0.0,0.0,0.0,0.0,0.0,0.0,0.0,0.0,0.0,0.0,0.0,0.0,0.0,0.0,0.0,0.0,0.0,0.0,0.0,0.0,0.0,0.0,0.0
1742680387962041955,31,3498970864,camera_init,body,15.266083021327837,0.06469213932118045,-0.14025699898651653,-0.0007136834191485166,0.0024927091867356214,-0.0022816867779839717,0.9999940354633781,7.398470597323953e-08,1.2329014349029247e-10,3.900502745524879e-09,-1.31779376153039e-09,-1.4233855098002037e-07,-3.4198233052504e-09,1.232901434899376e-10,6.287507575269144e-10,-5.781475171461568e-12,5.22751640344713e-10,4.027455033294279e-10,1.9219855416347828e-08,3.900502745426126e-09,-5.7814751700615065e-12,1.1280794220025914e-09,-7.505274932136385e-10,-5.0349009104093814e-08,-7.139737520105824e-10,-1.3177937615275214e-09,5.227516403115728e-10,-7.505274931945224e-10,5.956385274812841e-07,3.7394683363700516e-08,4.4907293036296616e-08,-1.423385509800118e-07,4.027455032663132e-10,-5.0349009102621723e-08,3.739468336384975e-08,3.903099876279899e-06,3.5412092375725276e-08,-3.419823305248198e-09,1.9219855414125988e-08,-7.139737520704374e-10,4.4907293034860776e-08,3.541209237583287e-08,1.1774863469515678e-06,0.0,0.0,0.0,0.0,0.0,0.0,0.0,0.0,0.0,0.0,0.0,0.0,0.0,0.0,0.0,0.0,0.0,0.0,0.0,0.0,0.0,0.0,0.0,0.0,0.0,0.0,0.0,0.0,0.0,0.0,0.0,0.0,0.0,0.0,0.0,0.0,0.0,0.0,0.0,0.0,0.0,0.0
1742680388065805688,32,3600120843,camera_init,body,15.835642127250146,0.07076839680223226,-0.1472260231128738,-0.0012518006842689878,0.002734892051239513,-0.0022999370039663435,0.9999928317994532,7.195145203307238e-08,2.4710166513963623e-10,3.8982594562276315e-09,-4.171353654975219e-09,-1.3644499907034053e-07,-1.8349002523882673e-09,2.4710166514044087e-10,6.776590635480199e-10,4.340968439634905e-11,3.3922808515266603e-10,-4.2211298580993003e-10,1.9605734736562968e-08,3.898259456277297e-09,4.340968439762388e-11,1.250959409288834e-09,6.290346214734818e-10,-5.284465613562207e-08,1.0976511037869596e-10,-4.171353654971332e-09,3.3922808516314806e-10,6.290346214820481e-10,5.936482894487422e-07,-1.574590255641813e-08,3.765112908395615e-08,-1.3644499907032422e-07,-4.221129856761158e-10,-5.284465613713771e-08,-1.5745902556292888e-08,3.935564824671398e-06,5.1785001834629024e-08,-1.8349002523897827e-09,1.96057347372096e-08,1.0976511036575348e-10,3.765112908264154e-08,5.1785001834854454e-08,1.1460629166408652e-06,0.0,0.0,0.0,0.0,0.0,0.0,0.0,0.0,0.0,0.0,0.0,0.0,0.0,0.0,0.0,0.0,0.0,0.0,0.0,0.0,0.0,0.0,0.0,0.0,0.0,0.0,0.0,0.0,0.0,0.0,0.0,0.0,0.0,0.0,0.0,0.0,0.0,0.0,0.0,0.0,0.0,0.0
1742680388162454065,33,3696695840,camera_init,body,16.38271592787368,0.07681669369757274,-0.1518409518035534,-0.0007459525102630236,0.0029623761885572523,-0.002326512024686557,0.9999926275848069,7.27372068487912e-08,7.851088916021523e-11,3.463047356370972e-09,-5.689795269438915e-10,-1.2907354376319015e-07,2.662713101477386e-10,7.85108891555385e-11,6.365712952962656e-10,3.677068947437023e-12,3.33756249713965e-10,5.590150815436667e-10,1.9146815781016887e-08,3.4630473563456788e-09,3.677068947667373e-12,1.1454514295351683e-09,-2.7515864348444317e-11,-4.995427072924276e-08,-2.9525051981137054e-10,-5.689795269375851e-10,3.3375624968940106e-10,-2.7515864357053613e-11,5.969492853352623e-07,1.6031349570302984e-08,4.7152814555478475e-08,-1.2907354376319513e-07,5.59015081542617e-10,-4.9954270730025826e-08,1.60313495704297e-08,3.8135332993251545e-06,4.0785767269999925e-08,2.662713101439683e-10,1.9146815780514755e-08,-2.9525051977785385e-10,4.7152814554223404e-08,4.078576727009708e-08,1.1687856894991406e-06,0.0,0.0,0.0,0.0,0.0,0.0,0.0,0.0,0.0,0.0,0.0,0.0,0.0,0.0,0.0,0.0,0.0,0.0,0.0,0.0,0.0,0.0,0.0,0.0,0.0,0.0,0.0,0.0,0.0,0.0,0.0,0.0,0.0,0.0,0.0,0.0,0.0,0.0,0.0,0.0,0.0,0.0
1742680388262504702,34,3799870858,camera_init,body,16.97425669995345,0.07971735968631569,-0.1613948404872571,-0.0011810972811811626,0.003153539702800091,-0.0023807999635824468,0.9999914959578841,7.1408073362319e-08,1.906220638754857e-10,3.940831735613462e-09,-2.4965214553471598e-09,-1.4038327986422896e-07,7.885483510575781e-10,1.906220639242483e-10,7.151558845919464e-10,3.953513404981885e-11,-9.503393654706068e-12,-4.114419434164362e-10,2.0652455922973846e-08,3.940831735494957e-09,3.9535134050442574e-11,1.2519898269156005e-09,-3.012035374642913e-10,-5.2327689829766446e-08,1.8802878002147885e-10,-2.4965214553023026e-09,-9.503383204860598e-12,-3.0120353758769256e-10,5.908149245814009e-07,2.9282203003045738e-08,3.5918870587224064e-08,-1.4038327986411567e-07,-4.1144194356679136e-10,-5.232768983281915e-08,2.9282203003158452e-08,3.819506954477053e-06,4.505730030884569e-08,7.885483510612699e-10,2.065245592181195e-08,1.8802878002263762e-10,3.591887058600501e-08,4.5057300308932855e-08,1.1878892647774739e-06,0.0,0.0,0.0,0.0,0.0,0.0,0.0,0.0,0.0,0.0,0.0,0.0,0.0,0.0,0.0,0.0,0.0,0.0,0.0,0.0,0.0,0.0,0.0,0.0,0.0,0.0,0.0,0.0,0.0,0.0,0.0,0.0,0.0,0.0,0.0,0.0,0.0,0.0,0.0,0.0,0.0,0.0
1742680388357753468,35,3899345849,camera_init,body,17.547482041635668,0.0798434091680074,-0.16956661589384123,-0.0010682934273178381,0.0034176864621179056,-0.0022900996594911955,0.9999909667651737,7.15883681290383e-08,3.7113310798041097e-10,3.900829696000598e-09,-1.3485679693821046e-09,-1.3352091820130727e-07,6.058559855802812e-09,3.711331080215931e-10,6.66163081369396e-10,4.049954089624669e-11,-3.118718701105634e-11,-7.303208979765982e-10,1.9876239855142056e-08,3.900829696105167e-09,4.049954087990795e-11,1.2240255164286786e-09,-8.91881061436432e-10,-5.2541063818627165e-08,3.159967388454816e-10,-1.3485679693355915e-09,-3.118719918260215e-11,-8.918810610039026e-10,5.803187709978896e-07,2.7327447931927603e-08,3.447752063019479e-08,-1.335209182012806e-07,-7.303208975043898e-10,-5.254106381749374e-08,2.7327447932047875e-08,3.940199297529246e-06,3.7270086554102607e-08,6.058559855800605e-09,1.9876239855163073e-08,3.159967388438269e-10,3.4477520629081045e-08,3.727008655420297e-08,1.172379462154029e-06,0.0,0.0,0.0,0.0,0.0,0.0,0.0,0.0,0.0,0.0,0.0,0.0,0.0,0.0,0.0,0.0,0.0,0.0,0.0,0.0,0.0,0.0,0.0,0.0,0.0,0.0,0.0,0.0,0.0,0.0,0.0,0.0,0.0,0.0,0.0,0.0,0.0,0.0,0.0,0.0,0.0,0.0
1742680388460030312,36,3999745851,camera_init,body,18.128660731103256,0.08245839834142145,-0.1754470731595911,-0.000840292890255812,0.0035746490983638596,-0.002194388574776267,0.9999908501833712,7.355884715951825e-08,3.054683130762613e-10,3.5749963425658026e-09,-4.202763249032147e-10,-1.279812224944404e-07,4.9521766358104175e-09,3.0546831308575064e-10,6.483308909806425e-10,-6.537119771109382e-12,4.921421520942031e-10,6.132827383865135e-10,1.9159884435370273e-08,3.574996342543722e-09,-6.537119772305297e-12,1.1255975960328124e-09,-2.526587442106194e-10,-4.835348676603356e-08,-6.295152228249436e-10,-4.2027632489413803e-10,4.921421521224728e-10,-2.5265874420507563e-10,5.74245935362265e-07,8.724243895034272e-09,4.4835893522686655e-08,-1.279812224945307e-07,6.13282738499551e-10,-4.8353486762626126e-08,8.72424389511523e-09,3.7115168089738845e-06,6.08223709593835e-08,4.95217663580355e-09,1.915988443547588e-08,-6.29515222745451e-10,4.4835893521688215e-08,6.082237095949898e-08,1.1239388966795788e-06,0.0,0.0,0.0,0.0,0.0,0.0,0.0,0.0,0.0,0.0,0.0,0.0,0.0,0.0,0.0,0.0,0.0,0.0,0.0,0.0,0.0,0.0,0.0,0.0,0.0,0.0,0.0,0.0,0.0,0.0,0.0,0.0,0.0,0.0,0.0,0.0,0.0,0.0,0.0,0.0,0.0,0.0
1742680388561355963,37,4099645845,camera_init,body,18.712952178543468,0.0867126782809313,-0.17660802517275606,-0.0004470541179305526,0.0035545936110817785,-0.0021139733713231254,0.9999913480243002,7.467524610459554e-08,2.3929264638017903e-10,3.622398623702806e-09,-3.0848866902608154e-09,-1.2290513345131155e-07,4.3053215545978655e-09,2.3929264639854844e-10,6.744124744407121e-10,3.414759673267316e-11,1.1076191201877085e-10,3.9892559197809985e-10,1.951489193379755e-08,3.622398623655032e-09,3.414759673047111e-11,1.1721087417502726e-09,-3.660272763687008e-10,-4.91696827180317e-08,-1.409973495569961e-10,-3.084886690246185e-09,1.1076190478013317e-10,-3.660272751183197e-10,5.7378682742159e-07,1.1014373829831495e-08,3.830561334431683e-08,-1.2290513345129059e-07,3.9892559273770105e-10,-4.916968271850355e-08,1.1014373829905921e-08,3.712739329371477e-06,8.05549035691916e-08,4.30532155459781e-09,1.9514891933943284e-08,-1.4099734958954937e-10,3.830561334333946e-08,8.05549035692921e-08,1.1375711416224004e-06,0.0,0.0,0.0,0.0,0.0,0.0,0.0,0.0,0.0,0.0,0.0,0.0,0.0,0.0,0.0,0.0,0.0,0.0,0.0,0.0,0.0,0.0,0.0,0.0,0.0,0.0,0.0,0.0,0.0,0.0,0.0,0.0,0.0,0.0,0.0,0.0,0.0,0.0,0.0,0.0,0.0,0.0
1742680388662368800,38,4199770864,camera_init,body,19.302200889538963,0.09171189084388214,-0.17678176142712365,-0.0004203954514655391,0.0033956536182617363,-0.001964125968445114,0.999992217476389,7.803219343697088e-08,2.415549424188856e-10,3.795936161130033e-09,3.8293785699054974e-10,-1.2927271386169677e-07,3.0569755784581338e-09,2.4155494240873106e-10,6.536848395612355e-10,8.803002624395685e-12,4.0956817110098254e-10,7.202646240909823e-10,1.9354716358009436e-08,3.795936161236694e-09,8.803002623794703e-12,1.2036460350823858e-09,2.6533726553697004e-10,-5.065746337096213e-08,-6.911016132242871e-10,3.8293785699778426e-10,4.095681712097204e-10,2.653372655337738e-10,5.605134478132939e-07,-6.291295335453249e-09,4.9555288890367916e-08,-1.2927271386172896e-07,7.202646241528707e-10,-5.065746337018335e-08,-6.291295335389165e-09,3.7825022424774006e-06,9.367461428118834e-08,3.0569755784510204e-09,1.93547163592381e-08,-6.911016132049396e-10,4.9555288889463496e-08,9.36746142813146e-08,1.148571594724851e-06,0.0,0.0,0.0,0.0,0.0,0.0,0.0,0.0,0.0,0.0,0.0,0.0,0.0,0.0,0.0,0.0,0.0,0.0,0.0,0.0,0.0,0.0,0.0,0.0,0.0,0.0,0.0,0.0,0.0,0.0,0.0,0.0,0.0,0.0,0.0,0.0,0.0,0.0,0.0,0.0,0.0,0.0
1742680388758528260,39,4298670858,camera_init,body,19.88927162888806,0.09950767745030463,-0.1817603413308917,8.838842476957346e-05,0.0031914643464677197,-0.0019118427607605977,0.9999930757760604,7.603392924692825e-08,5.071920756793602e-10,3.949292492236928e-09,2.8265952378562953e-09,-1.3763912899023172e-07,7.944780631998485e-09,5.071920756854552e-10,6.294448997125942e-10,3.249499432107789e-11,4.534145437042322e-10,-1.212970203339582e-10,1.8771550857580807e-08,3.949292492249407e-09,3.2494994319626585e-11,1.1919198512224771e-09,-2.806319670958466e-10,-5.099254054403297e-08,-1.716008283637322e-10,2.8265952378681914e-09,4.5341454371312604e-10,-2.806319671135979e-10,5.711932553991866e-07,-2.1534456581777756e-09,4.880667825688004e-08,-1.376391289901789e-07,-1.212970201644813e-10,-5.099254054477334e-08,-2.153445658082964e-09,3.855096452600231e-06,5.858604020174348e-08,7.944780631993729e-09,1.877155085783762e-08,-1.7160082837717347e-10,4.880667825600764e-08,5.8586040201844185e-08,1.1326531748029368e-06,0.0,0.0,0.0,0.0,0.0,0.0,0.0,0.0,0.0,0.0,0.0,0.0,0.0,0.0,0.0,0.0,0.0,0.0,0.0,0.0,0.0,0.0,0.0,0.0,0.0,0.0,0.0,0.0,0.0,0.0,0.0,0.0,0.0,0.0,0.0,0.0,0.0,0.0,0.0,0.0,0.0,0.0
1742680388860124463,40,4399145849,camera_init,body,20.489077190776754,0.1023185451819546,-0.18943300845620067,-0.0007946903489263876,0.0030730721997429327,-0.0017195130591587757,0.9999934839634406,7.521093059116482e-08,3.0960809530144914e-10,3.569331786990129e-09,-6.9809172605856105e-09,-1.1216082733018398e-07,3.2742704282180807e-09,3.0960809524520944e-10,6.8688030639691e-10,5.985803789711968e-11,-7.91527984036003e-11,-1.354102609626705e-09,1.9738790047038557e-08,3.569331786894186e-09,5.985803790067085e-11,1.2556134846181686e-09,-8.637236314522936e-10,-5.157667875213251e-08,7.882491533448525e-10,-6.9809172605575864e-09,-7.91528068844118e-11,-8.637236310486097e-10,5.824503864182936e-07,2.39782797799803e-08,4.0776408792882745e-08,-1.121608273301988e-07,-1.3541026094978643e-09,-5.1576678752760916e-08,2.397827978009592e-08,3.7988900114363342e-06,1.2943380884474054e-08,3.274270428224761e-09,1.9738790046550576e-08,7.882491534369154e-10,4.077640879200593e-08,1.2943380884530686e-08,1.1396077966248126e-06,0.0,0.0,0.0,0.0,0.0,0.0,0.0,0.0,0.0,0.0,0.0,0.0,0.0,0.0,0.0,0.0,0.0,0.0,0.0,0.0,0.0,0.0,0.0,0.0,0.0,0.0,0.0,0.0,0.0,0.0,0.0,0.0,0.0,0.0,0.0,0.0,0.0,0.0,0.0,0.0,0.0,0.0
1742680388957328020,41,4497695840,camera_init,body,21.086023970610285,0.1053251513313642,-0.19912830993013053,-0.00011157382417732961,0.0030310190780627974,-0.001711590104166184,0.9999939354485812,7.720213303770386e-08,4.989192763927496e-10,3.761046651979571e-09,9.20975155171189e-11,-1.2325839842559564e-07,8.299351124526006e-09,4.989192763925844e-10,7.01631589491243e-10,9.926451365495048e-11,7.302792371111904e-10,-1.7247885663987222e-09,2.0434160442430356e-08,3.7610466520509345e-09,9.926451365195537e-11,1.1801575711348363e-09,5.8049907994266134e-11,-5.0983507299051474e-08,1.6753603056746346e-09,9.209751552612359e-11,7.302792369342664e-10,5.804990802093609e-11,5.792625869523716e-07,1.1830780068329782e-08,5.7590278684535054e-08,-1.2325839842562507e-07,-1.7247885667159377e-09,-5.098350729811162e-08,1.183078006844208e-08,3.8995809347890785e-06,-2.112520404243118e-08,8.299351124520368e-09,2.043416043927554e-08,1.6753603060080907e-09,5.759027868365185e-08,-2.1125204042345835e-08,1.1799083719979432e-06,0.0,0.0,0.0,0.0,0.0,0.0,0.0,0.0,0.0,0.0,0.0,0.0,0.0,0.0,0.0,0.0,0.0,0.0,0.0,0.0,0.0,0.0,0.0,0.0,0.0,0.0,0.0,0.0,0.0,0.0,0.0,0.0,0.0,0.0,0.0,0.0,0.0,0.0,0.0,0.0,0.0,0.0
1742680389060931821,42,4599295854,camera_init,body,21.709160087432007,0.10256008946959515,-0.207707227630597,-0.0006750623075192122,0.002923647450158819,-0.0016765783372122952,0.9999940928133239,7.665500208449628e-08,4.5217544430375495e-10,3.730334339582325e-09,-6.357853796757672e-11,-1.1717094956048941e-07,1.0195637495058174e-08,4.521754443610451e-10,6.589542285038909e-10,3.932833827691584e-11,1.2684642752260425e-10,-7.100811233604602e-10,1.989913389710189e-08,3.7303343396711975e-09,3.932833827507168e-11,1.2135175387551953e-09,5.866282214402497e-10,-5.1573555462213845e-08,5.284730531932837e-10,-6.357853817543107e-11,1.2684648516044345e-10,5.866282206750712e-10,5.667018182372353e-07,-1.2511458373024227e-08,3.6600485061749995e-08,-1.1717094956043319e-07,-7.100811209127178e-10,-5.1573555460151505e-08,-1.2511458372924459e-08,3.838532038280356e-06,2.0674313413829e-08,1.0195637495045566e-08,1.9899133900052072e-08,5.284730531698997e-10,3.660048506104219e-08,2.067431341395262e-08,1.2152564247178955e-06,0.0,0.0,0.0,0.0,0.0,0.0,0.0,0.0,0.0,0.0,0.0,0.0,0.0,0.0,0.0,0.0,0.0,0.0,0.0,0.0,0.0,0.0,0.0,0.0,0.0,0.0,0.0,0.0,0.0,0.0,0.0,0.0,0.0,0.0,0.0,0.0,0.0,0.0,0.0,0.0,0.0,0.0
1742680389162111370,43,4699870858,camera_init,body,22.331730839707998,0.10328139064485096,-0.21076734320474835,-0.0010408847401622585,0.002757611177520859,-0.001750893191147471,0.9999941232390213,8.399651842702725e-08,4.3464199543412135e-10,4.069042944683461e-09,-2.0146757478148244e-09,-1.2478686472434864e-07,1.163831195821598e-08,4.3464199542611574e-10,7.128280872132644e-10,2.1723139956696882e-11,9.607930600491779e-12,4.1674689745612894e-10,2.116083737581542e-08,4.069042944786918e-09,2.172313996479076e-11,1.274881591212197e-09,-5.825604134668426e-11,-5.3645775045562525e-08,-1.7644875638402535e-10,-2.0146757478152173e-09,9.607938797335489e-12,-5.825604122952075e-11,5.703744341238367e-07,-1.6086462905214894e-08,4.0375954308023024e-08,-1.2478686472442784e-07,4.1674689692835587e-10,-5.364577504090534e-08,-1.608646290514134e-08,3.976973255582149e-06,7.495415734698547e-08,1.1638311958211995e-08,2.1160837377824887e-08,-1.7644875630986705e-10,4.037595430740421e-08,7.49541573470937e-08,1.2439894783159929e-06,0.0,0.0,0.0,0.0,0.0,0.0,0.0,0.0,0.0,0.0,0.0,0.0,0.0,0.0,0.0,0.0,0.0,0.0,0.0,0.0,0.0,0.0,0.0,0.0,0.0,0.0,0.0,0.0,0.0,0.0,0.0,0.0,0.0,0.0,0.0,0.0,0.0,0.0,0.0,0.0,0.0,0.0
1742680389262997114,44,4799820848,camera_init,body,22.95199806103491,0.10074573296079638,-0.21668195422900693,-0.0011429120100899793,0.002453787830974527,-0.0018054089008251463,0.9999947065740462,9.171242514097167e-08,4.795391725443954e-10,3.824384150043947e-09,1.6025373498965562e-10,-1.3937259848132384e-07,1.3863782731661103e-08,4.795391725320764e-10,7.208525271108161e-10,1.0375345395806909e-11,3.784831586569045e-10,7.475480193253927e-10,2.096301029131014e-08,3.824384149980173e-09,1.037534539486016e-11,1.2160742803710351e-09,-5.962683551886454e-11,-5.228549999947085e-08,-3.024070967608496e-10,1.602537350002121e-10,3.7848315867289224e-10,-5.962683552149332e-11,5.55742308854108e-07,-3.47850799370135e-09,3.894257619561181e-08,-1.3937259848135285e-07,7.475480194531272e-10,-5.228549999971936e-08,-3.4785079936399998e-09,3.9796486526843525e-06,6.714732883789877e-08,1.3863782731658068e-08,2.096301029338875e-08,-3.0240709674372674e-10,3.8942576195022385e-08,6.714732883797481e-08,1.188740828875445e-06,0.0,0.0,0.0,0.0,0.0,0.0,0.0,0.0,0.0,0.0,0.0,0.0,0.0,0.0,0.0,0.0,0.0,0.0,0.0,0.0,0.0,0.0,0.0,0.0,0.0,0.0,0.0,0.0,0.0,0.0,0.0,0.0,0.0,0.0,0.0,0.0,0.0,0.0,0.0,0.0,0.0,0.0
1742680389360519327,45,4899995866,camera_init,body,23.578870460520903,0.0996530133059524,-0.2272635779588058,-0.001682879313651736,0.002416213245611324,-0.0019515322733894744,0.9999937606568089,7.97494047852202e-08,5.982009167359236e-10,3.4771563026191418e-09,-6.963254783847036e-09,-1.246591734242215e-07,1.38120492436324e-08,5.982009167559224e-10,6.949329531353503e-10,3.5563002323338884e-11,2.412388677460776e-10,-2.1305637892073578e-10,2.0674373717170197e-08,3.477156302677081e-09,3.5563002321009466e-11,1.1672243544153058e-09,-2.6359286842119974e-11,-5.106071064321496e-08,4.516608752012625e-10,-6.963254783837467e-09,2.412388677694769e-10,-2.6359286838643334e-11,5.473353358037028e-07,-1.9871470310762851e-10,4.040802761115241e-08,-1.2465917342423716e-07,-2.130563790215753e-10,-5.106071064250771e-08,-1.9871470303702182e-10,3.838465387487607e-06,2.3950427421882878e-08,1.3812049243638404e-08,2.06743737165812e-08,4.5166087525956125e-10,4.0408027610515374e-08,2.395042742195322e-08,1.2104878664230692e-06,0.0,0.0,0.0,0.0,0.0,0.0,0.0,0.0,0.0,0.0,0.0,0.0,0.0,0.0,0.0,0.0,0.0,0.0,0.0,0.0,0.0,0.0,0.0,0.0,0.0,0.0,0.0,0.0,0.0,0.0,0.0,0.0,0.0,0.0,0.0,0.0,0.0,0.0,0.0,0.0,0.0,0.0
1742680389461942756,46,4999695860,camera_init,body,24.20755975363088,0.10211072098302573,-0.2341797647743055,-0.0016559699460612714,0.002558637229241572,-0.001995857915298803,0.9999933638231019,8.464808902385442e-08,6.393356659265185e-10,3.813377144477197e-09,-4.687786976763084e-09,-1.2407057342707686e-07,1.14538591139512e-08,6.393356659397136e-10,7.601795812294844e-10,5.67190945886357e-11,5.347529627074705e-11,-1.0483298912840601e-09,2.184563857120901e-08,3.813377144419065e-09,5.67190945836773e-11,1.2946192913407479e-09,-1.1487270242627425e-10,-5.47291411822617e-08,7.452340625712724e-10,-4.687786976753879e-09,5.3475296297746225e-11,-1.1487270243615327e-10,5.649465038416576e-07,-1.73541881449045e-08,2.9328591010369354e-08,-1.2407057342704742e-07,-1.0483298910717878e-09,-5.472914118474578e-08,-1.7354188144835618e-08,4.008311676881202e-06,2.5454878726678105e-08,1.1453859113960904e-08,2.1845638571972325e-08,7.452340626169381e-10,2.9328591009710144e-08,2.545487872677603e-08,1.2431972341846855e-06,0.0,0.0,0.0,0.0,0.0,0.0,0.0,0.0,0.0,0.0,0.0,0.0,0.0,0.0,0.0,0.0,0.0,0.0,0.0,0.0,0.0,0.0,0.0,0.0,0.0,0.0,0.0,0.0,0.0,0.0,0.0,0.0,0.0,0.0,0.0,0.0,0.0,0.0,0.0,0.0,0.0,0.0
1742680389561915339,47,5098433340,camera_init,body,24.836600757519403,0.10666096511899535,-0.23901263861931382,-0.0014912976540368105,0.002588629375034501,-0.0021045480396790343,0.9999933229311128,7.556112624309462e-08,7.693912898576822e-10,3.7736437015901176e-09,-4.994814535057435e-09,-1.202560871521016e-07,1.1685227076417418e-08,7.693912898189327e-10,7.342234063030702e-10,5.63621749999774e-11,-3.798765700763421e-10,-9.685665420962911e-10,2.1655753375480444e-08,3.773643701651263e-09,5.6362175008749175e-11,1.318364315916617e-09,2.0456341344149203e-10,-5.5179611841209596e-08,7.063755644739655e-10,-4.9948145349885205e-09,-3.798765748486316e-10,2.045634135653557e-10,5.422350981376716e-07,-1.9049336798368544e-08,2.2055568035350686e-08,-1.2025608715213557e-07,-9.68566542898629e-10,-5.517961184029498e-08,-1.9049336798314218e-08,3.96352339437887e-06,1.7923493455881863e-08,1.1685227076421456e-08,2.165575337378851e-08,7.063755644413007e-10,2.2055568034714385e-08,1.7923493455968803e-08,1.251071984853164e-06,0.0,0.0,0.0,0.0,0.0,0.0,0.0,0.0,0.0,0.0,0.0,0.0,0.0,0.0,0.0,0.0,0.0,0.0,0.0,0.0,0.0,0.0,0.0,0.0,0.0,0.0,0.0,0.0,0.0,0.0,0.0,0.0,0.0,0.0,0.0,0.0,0.0,0.0,0.0,0.0,0.0,0.0
1742680389658828395,48,5199145849,camera_init,body,25.481151833084315,0.11166474450105406,-0.2447485426857422,-0.0024641080144262033,0.00225152466978444,-0.002274547284837039,0.9999918425882275,7.466539198458668e-08,4.254091668685528e-10,3.742940158398306e-09,-4.63787865797577e-09,-1.1800670951228199e-07,7.898760198197006e-09,4.254091668736332e-10,7.13583537325182e-10,7.724287651861142e-12,3.222290959583291e-10,6.583195534353052e-10,2.11172671922701e-08,3.742940158495628e-09,7.724287652394073e-12,1.2600850775816965e-09,-2.185745091369843e-10,-5.291988365194666e-08,-8.929052662395869e-11,-4.63787865796854e-09,3.2222909595102344e-10,-2.1857450914000847e-10,5.220046139513306e-07,2.276183801308029e-08,3.148453770482007e-08,-1.1800670951224186e-07,6.583195533876182e-10,-5.29198836499034e-08,2.2761838013124078e-08,3.866917965254404e-06,2.1565429124827513e-08,7.898760198205024e-09,2.1117267191204405e-08,-8.929052661205701e-11,3.1484537704220607e-08,2.156542912485804e-08,1.2325985400772232e-06,0.0,0.0,0.0,0.0,0.0,0.0,0.0,0.0,0.0,0.0,0.0,0.0,0.0,0.0,0.0,0.0,0.0,0.0,0.0,0.0,0.0,0.0,0.0,0.0,0.0,0.0,0.0,0.0,0.0,0.0,0.0,0.0,0.0,0.0,0.0,0.0,0.0,0.0,0.0,0.0,0.0,0.0
