%time,field.header.seq,field.header.stamp,field.header.frame_id,field.child_frame_id,field.pose.pose.position.x,field.pose.pose.position.y,field.pose.pose.position.z,field.pose.pose.orientation.x,field.pose.pose.orientation.y,field.pose.pose.orientation.z,field.pose.pose.orientation.w,field.pose.covariance0,field.pose.covariance1,field.pose.covariance2,field.pose.covariance3,field.pose.covariance4,field.pose.covariance5,field.pose.covariance6,field.pose.covariance7,field.pose.covariance8,field.pose.covariance9,field.pose.covariance10,field.pose.covariance11,field.pose.covariance12,field.pose.covariance13,field.pose.covariance14,field.pose.covariance15,field.pose.covariance16,field.pose.covariance17,field.pose.covariance18,field.pose.covariance19,field.pose.covariance20,field.pose.covariance21,field.pose.covariance22,field.pose.covariance23,field.pose.covariance24,field.pose.covariance25,field.pose.covariance26,field.pose.covariance27,field.pose.covariance28,field.pose.covariance29,field.pose.covariance30,field.pose.covariance31,field.pose.covariance32,field.pose.covariance33,field.pose.covariance34,field.pose.covariance35,field.twist.twist.linear.x,field.twist.twist.linear.y,field.twist.twist.linear.z,field.twist.twist.angular.x,field.twist.twist.angular.y,field.twist.twist.angular.z,field.twist.covariance0,field.twist.covariance1,field.twist.covariance2,field.twist.covariance3,field.twist.covariance4,field.twist.covariance5,field.twist.covariance6,field.twist.covariance7,field.twist.covariance8,field.twist.covariance9,field.twist.covariance10,field.twist.covariance11,field.twist.covariance12,field.twist.covariance13,field.twist.covariance14,field.twist.covariance15,field.twist.covariance16,field.twist.covariance17,field.twist.covariance18,field.twist.covariance19,field.twist.covariance20,field.twist.covariance21,field.twist.covariance22,field.twist.covariance23,field.twist.covariance24,field.twist.covariance25,field.twist.covariance26,field.twist.covariance27,field.twist.covariance28,field.twist.covariance29,field.twist.covariance30,field.twist.covariance31,field.twist.covariance32,field.twist.covariance33,field.twist.covariance34,field.twist.covariance35
400520854,0,400520854,camera_init,body,0.26748220053004446,0.005405664586979126,0.005122124688538909,-0.0035608353043057434,0.00024028684953356032,-0.00042244093699147535,0.9999935421080577,0.0,0.0,0.0,0.0,0.0,0.0,0.0,0.0,0.0,0.0,0.0,0.0,0.0,0.0,0.0,0.0,0.0,0.0,0.0,0.0,0.0,0.0,0.0,0.0,0.0,0.0,0.0,0.0,0.0,0.0,0.0,0.0,0.0,0.0,0.0,0.0,0.0,0.0,0.0,0.0,0.0,0.0,0.0,0.0,0.0,0.0,0.0,0.0,0.0,0.0,0.0,0.0,0.0,0.0,0.0,0.0,0.0,0.0,0.0,0.0,0.0,0.0,0.0,0.0,0.0,0.0,0.0,0.0,0.0,0.0,0.0,0.0,0.0,0.0,0.0,0.0,0.0,0.0
500470858,1,500470858,camera_init,body,0.5959210401615659,0.020096731108912493,-0.0038765358843688823,0.00279322815571081,-3.405331126161583e-05,-0.000493513627078862,0.9999959765724763,4.0400322465217187e-07,-9.405273785117256e-09,1.8351290329926767e-08,-5.091776762192418e-08,-5.2904976563517e-07,-1.322308092444567e-07,-9.405273685548903e-09,3.9167211696167215e-09,-2.505690960157423e-10,2.029365794853355e-08,-2.5848254759470654e-09,1.2633501554441817e-07,1.8351291997998915e-08,-2.5056919034224454e-10,5.84692028127165e-09,3.0292573330835404e-08,-1.9518814060003054e-07,9.128158512806787e-09,-5.091776761773645e-08,2.0293607821963988e-08,3.0292780911315986e-08,7.0786258465904695e-06,-1.0193734638635043e-06,1.1324980855420379e-06,-5.290497646637249e-07,-2.5848291106535335e-09,-1.9518811614042952e-07,-1.0193734733090465e-06,1.2266161395269037e-05,-1.1762133579796977e-06,-1.32230809711531e-07,1.2633499257841407e-07,9.12816363352753e-09,1.1324980784045181e-06,-1.176213358308753e-06,6.26378347790002e-06,0.0,0.0,0.0,0.0,0.0,0.0,0.0,0.0,0.0,0.0,0.0,0.0,0.0,0.0,0.0,0.0,0.0,0.0,0.0,0.0,0.0,0.0,0.0,0.0,0.0,0.0,0.0,0.0,0.0,0.0,0.0,0.0,0.0,0.0,0.0,0.0,0.0,0.0,0.0,0.0,0.0,0.0
600083338,2,600083338,camera_init,body,1.0476447698561038,0.020643094791886772,0.0004480387025068857,-0.0020590813742192133,0.0002118530241766714,-0.0006574102366578369,0.9999976415542037,2.470878960655814e-07,-4.303032247716985e-09,1.2722833893114766e-08,3.8207643262802714e-08,-3.4472803033014506e-07,-5.070847333894001e-08,-4.303032247638597e-09,2.7114973314334902e-09,-1.282938496764191e-10,1.988136914077929e-09,-4.9786739267446994e-09,9.479298997807602e-08,1.2722833893074191e-08,-1.2829384969285932e-10,3.800600809876497e-09,9.695765074508122e-09,-1.5315624573781389e-07,5.1430258885426685e-09,3.820764326306276e-08,1.9881369059553066e-09,9.695765074888761e-09,4.898902669497884e-06,-8.049984278748627e-07,5.485737229846993e-07,-3.447280303302036e-07,-4.97867392509079e-09,-1.531562457400625e-07,-8.049984278756531e-07,1.1171798643277303e-05,-9.097202107329411e-07,-5.070847333893044e-08,9.479298997794585e-08,5.143025888785903e-09,5.485737229328671e-07,-9.097202107296576e-07,5.332530392088142e-06,0.0,0.0,0.0,0.0,0.0,0.0,0.0,0.0,0.0,0.0,0.0,0.0,0.0,0.0,0.0,0.0,0.0,0.0,0.0,0.0,0.0,0.0,0.0,0.0,0.0,0.0,0.0,0.0,0.0,0.0,0.0,0.0,0.0,0.0,0.0,0.0,0.0,0.0,0.0,0.0,0.0,0.0
699870842,3,699870842,camera_init,body,1.480365847621414,0.0029655934233662703,-0.008708978460133238,0.0017286271936590009,-9.10590480343318e-05,-0.0005884211229858639,0.999998328657031,2.648506800162931e-07,-4.083723556093829e-09,8.321586377525735e-09,2.9065767512184378e-08,-2.682443592886844e-07,-2.984570155845438e-08,-4.083723555585794e-09,2.0231939070451286e-09,1.1386411585987403e-10,4.6305815466204296e-09,-9.955247958110762e-09,7.167584252630398e-08,8.321586377579012e-09,1.1386411577155418e-10,2.655270340224064e-09,5.620836556901738e-09,-1.2048499751788677e-07,1.2437170122773151e-08,2.9065767503081467e-08,4.630581511917384e-09,5.620836561980678e-09,3.5984283395877288e-06,-4.812318582120127e-07,4.910985132063053e-07,-2.682443592906129e-07,-9.955247951892033e-09,-1.204849975160406e-07,-4.812318584569725e-07,1.0115536528292552e-05,-1.1707428520650878e-06,-2.984570155875827e-08,7.167584252396478e-08,1.2437170123532776e-08,4.910985130686489e-07,-1.1707428520907804e-06,4.512466055306384e-06,0.0,0.0,0.0,0.0,0.0,0.0,0.0,0.0,0.0,0.0,0.0,0.0,0.0,0.0,0.0,0.0,0.0,0.0,0.0,0.0,0.0,0.0,0.0,0.0,0.0,0.0,0.0,0.0,0.0,0.0,0.0,0.0,0.0,0.0,0.0,0.0,0.0,0.0,0.0,0.0,0.0,0.0
799445857,4,799445857,camera_init,body,1.8809719027678355,-0.008801466611993684,-0.016474127055937697,0.0025309812579894274,-8.714669735655665e-05,-0.0006615195642059393,0.9999965744597277,2.400221864733729e-07,-6.089931702418125e-09,7.757535802866479e-09,4.909830839520749e-08,-1.88843277755619e-07,-4.739976766995298e-08,-6.089931702127813e-09,2.0020200539486535e-09,1.799343841415487e-11,2.5483247007492337e-09,-6.11972950747437e-09,6.079607675435952e-08,7.757535802983712e-09,1.799343837137017e-11,2.3882919502195114e-09,3.4580247178838217e-09,-1.0069935314127615e-07,7.3901993630267465e-09,4.909830838683092e-08,2.5483247123119746e-09,3.4580247143119173e-09,3.0611844174978048e-06,-3.259615507981314e-07,3.473046567178492e-07,-1.888432777611819e-07,-6.119729505695282e-09,-1.006993531424369e-07,-3.2596155110388955e-07,8.976116315927119e-06,-7.719411412470044e-07,-4.7399767671840087e-08,6.079607675246355e-08,7.390199363743411e-09,3.4730465654687136e-07,-7.719411412824078e-07,3.7582477177591288e-06,0.0,0.0,0.0,0.0,0.0,0.0,0.0,0.0,0.0,0.0,0.0,0.0,0.0,0.0,0.0,0.0,0.0,0.0,0.0,0.0,0.0,0.0,0.0,0.0,0.0,0.0,0.0,0.0,0.0,0.0,0.0,0.0,0.0,0.0,0.0,0.0,0.0,0.0,0.0,0.0,0.0,0.0
899208354,5,899208354,camera_init,body,2.261938682655975,-0.013957185091719875,-0.022912978701618743,0.0011390437723218566,0.00011415970364647885,-0.0010038197158912829,0.9999988409457397,2.310247792297257e-07,-1.899541261575159e-09,6.913146867238425e-09,3.614221374475817e-08,-1.8310304205407714e-07,7.299376200891948e-09,-1.899541261589945e-09,1.6676400101667808e-09,1.4007326778415545e-10,3.7818331317317585e-09,-8.323491484548781e-09,5.1503016434611864e-08,6.913146867419188e-09,1.400732677761203e-10,2.278662325159704e-09,2.0625201406550276e-09,-9.133595565439632e-08,8.021193334508046e-09,3.614221374061779e-08,3.781833133226348e-09,2.062520138622372e-09,2.4795517225495846e-06,-2.854361983084465e-07,2.935943578681645e-07,-1.8310304205620669e-07,-8.323491484131823e-09,-9.133595565284374e-08,-2.854361984786573e-07,7.957023589027624e-06,-7.342118326009136e-07,7.299376200155254e-09,5.150301643451415e-08,8.02119333456409e-09,2.9359435778085363e-07,-7.342118326169402e-07,3.1467839512937053e-06,0.0,0.0,0.0,0.0,0.0,0.0,0.0,0.0,0.0,0.0,0.0,0.0,0.0,0.0,0.0,0.0,0.0,0.0,0.0,0.0,0.0,0.0,0.0,0.0,0.0,0.0,0.0,0.0,0.0,0.0,0.0,0.0,0.0,0.0,0.0,0.0,0.0,0.0,0.0,0.0,0.0,0.0
999345851,6,999345851,camera_init,body,2.6185133708869275,-0.02084391885103059,-0.03242262887278409,-0.0003114642583576265,-4.6541096797168344e-05,-0.0012326658965309217,0.999999190679036,1.9386463457785286e-07,-4.53955646590045e-09,6.468001361915388e-09,2.2623787692799947e-08,-1.949503775432247e-07,-3.272997248896738e-08,-4.539556465927473e-09,1.7534592061478876e-09,-1.4899136181229185e-10,3.824349387566692e-09,-1.6563519605723995e-09,5.258002608664639e-08,6.468001361738135e-09,-1.4899136181394352e-10,2.32681679270154e-09,5.453611947212027e-09,-9.410240509127187e-08,3.6537121905520457e-09,2.2623787690784783e-08,3.8243493879549505e-09,5.453611946459636e-09,2.172793000143648e-06,-3.459591828508076e-07,2.9360371092790844e-07,-1.9495037754372816e-07,-1.6563519599771868e-09,-9.410240509173521e-08,-3.4595918290916886e-07,7.577575376920273e-06,-6.859901917929968e-07,-3.272997248919322e-08,5.258002608520417e-08,3.6537121906331623e-09,2.9360371090064494e-07,-6.859901917940949e-07,3.0311916605784046e-06,0.0,0.0,0.0,0.0,0.0,0.0,0.0,0.0,0.0,0.0,0.0,0.0,0.0,0.0,0.0,0.0,0.0,0.0,0.0,0.0,0.0,0.0,0.0,0.0,0.0,0.0,0.0,0.0,0.0,0.0,0.0,0.0,0.0,0.0,0.0,0.0,0.0,0.0,0.0,0.0,0.0,0.0
1098858348,7,1098858348,camera_init,body,2.9663038751854027,-0.026881201039750776,-0.03224638341119294,-0.00016951240145432814,4.1911036093500976e-05,-0.0012278867445940649,0.9999992309012797,2.1323531805737751e-07,-3.529842660617555e-09,5.934056612265683e-09,1.0521339272513069e-08,-1.7153787568513735e-07,-1.7211615798529897e-08,-3.529842660612222e-09,1.6593768257050175e-09,-2.488354423937229e-11,2.6608077218883965e-09,-3.2099750972271568e-09,4.857113956297527e-08,5.934056612238994e-09,-2.4883544234854463e-11,2.093648328211912e-09,3.2521282256827506e-09,-8.483709509097585e-08,5.188850859702242e-09,1.0521339272441412e-08,2.660807722015663e-09,3.2521282257049207e-09,2.100601391212619e-06,-3.1542787353364084e-07,2.440737509656665e-07,-1.7153787568510199e-07,-3.2099750975001756e-09,-8.483709509108511e-08,-3.154278735360024e-07,7.079752552660334e-06,-6.304090827753355e-07,-1.7211615798598335e-08,4.8571139564166605e-08,5.188850859559667e-09,2.4407375096466733e-07,-6.304090827730285e-07,2.9270628223326226e-06,0.0,0.0,0.0,0.0,0.0,0.0,0.0,0.0,0.0,0.0,0.0,0.0,0.0,0.0,0.0,0.0,0.0,0.0,0.0,0.0,0.0,0.0,0.0,0.0,0.0,0.0,0.0,0.0,0.0,0.0,0.0,0.0,0.0,0.0,0.0,0.0,0.0,0.0,0.0,0.0,0.0,0.0
1199545863,8,1199545863,camera_init,body,3.3273796309509036,-0.03537228599875331,-0.035077355501345366,0.001059275352053844,2.0088665308978805e-05,-0.0014801454663691726,0.9999983433494128,2.1361770617308993e-07,-5.592189126500508e-09,5.789099367847795e-09,1.9406915190341584e-08,-1.7773400055396632e-07,-5.4246758922895896e-08,-5.592189126510527e-09,1.9235129194734163e-09,-5.885897643887344e-11,-1.4390277838918382e-09,-9.001023448339578e-10,5.363363140487487e-08,5.789099367941247e-09,-5.885897645095247e-11,2.138275133399623e-09,2.8003187672876667e-09,-8.805268389501685e-08,4.6161445863483455e-09,1.94069151906769e-08,-1.4390277711975672e-09,2.800318765199275e-09,2.093631639461709e-06,-1.6619780088840416e-07,1.2204587734325829e-07,-1.7773400055393021e-07,-9.001023436685447e-10,-8.805268389221762e-08,-1.661978008838963e-07,7.4626134962177495e-06,-6.4123092298243e-07,-5.424675892294137e-08,5.363363140307111e-08,4.616144586130732e-09,1.2204587734267235e-07,-6.412309229814502e-07,2.941591806922103e-06,0.0,0.0,0.0,0.0,0.0,0.0,0.0,0.0,0.0,0.0,0.0,0.0,0.0,0.0,0.0,0.0,0.0,0.0,0.0,0.0,0.0,0.0,0.0,0.0,0.0,0.0,0.0,0.0,0.0,0.0,0.0,0.0,0.0,0.0,0.0,0.0,0.0,0.0,0.0,0.0,0.0,0.0
1299233340,9,1299233340,camera_init,body,3.6865623132447727,-0.03850188849452371,-0.04436172389151836,0.000349886843610282,-0.00014291464209061978,-0.0016195895916633627,0.9999986170411208,1.956965453919223e-07,-4.499797689422785e-09,5.015556252198225e-09,2.1154820115197485e-08,-1.9536639519673847e-07,-3.076590301495865e-08,-4.499797689464255e-09,1.715697636092944e-09,3.881862107557536e-11,4.911747201655033e-09,-5.095164489744471e-09,4.9310947468247936e-08,5.015556252085664e-09,3.881862106698713e-11,1.7134716298890349e-09,2.3071501544225554e-09,-7.783539887505388e-08,7.0315369680533725e-09,2.1154820114899776e-08,4.9117472015196136e-09,2.307150154383301e-09,1.9020660103575412e-06,-1.7005067736299098e-07,2.3579188773627845e-07,-1.9536639519676918e-07,-5.095164488763163e-09,-7.783539887602374e-08,-1.700506773687225e-07,7.050634708301657e-06,-7.61284855624226e-07,-3.076590301504281e-08,4.9310947465000697e-08,7.0315369685311694e-09,2.3579188773030292e-07,-7.612848556255179e-07,2.8588323200682353e-06,0.0,0.0,0.0,0.0,0.0,0.0,0.0,0.0,0.0,0.0,0.0,0.0,0.0,0.0,0.0,0.0,0.0,0.0,0.0,0.0,0.0,0.0,0.0,0.0,0.0,0.0,0.0,0.0,0.0,0.0,0.0,0.0,0.0,0.0,0.0,0.0,0.0,0.0,0.0,0.0,0.0,0.0
1398095858,10,1398095858,camera_init,body,4.057981902024335,-0.04298077238307011,-0.04592970214167239,-0.0018206507805318922,-0.00011750164451000636,-0.0018995563931788447,0.999996531548788,1.7619145073066863e-07,-2.804910197957661e-09,5.546485969391848e-09,4.787931888343645e-09,-1.471841708040672e-07,-1.219162263235328e-08,-2.8049101979650088e-09,1.5767703786926822e-09,6.006749404245959e-11,3.783461404808804e-11,-6.4935893964624785e-09,4.522674284635205e-08,5.546485969321526e-09,6.006749404779961e-11,1.8241299746607964e-09,-7.073159580396198e-10,-8.155508828820958e-08,7.573595680789555e-09,4.7879318880038754e-09,3.783464094000769e-11,-7.073159785673665e-10,1.8346350813267856e-06,-1.4906102858436465e-07,1.259160870578064e-07,-1.4718417080415276e-07,-6.493589399408715e-09,-8.155508828828386e-08,-1.4906102860078266e-07,7.353843639321121e-06,-8.140491661660666e-07,-1.2191622632289342e-08,4.522674284647943e-08,7.573595680748219e-09,1.2591608704941648e-07,-8.140491661694962e-07,2.6293447194002507e-06,0.0,0.0,0.0,0.0,0.0,0.0,0.0,0.0,0.0,0.0,0.0,0.0,0.0,0.0,0.0,0.0,0.0,0.0,0.0,0.0,0.0,0.0,0.0,0.0,0.0,0.0,0.0,0.0,0.0,0.0,0.0,0.0,0.0,0.0,0.0,0.0,0.0,0.0,0.0,0.0,0.0,0.0
1499195852,11,1499195852,camera_init,body,4.441438434487194,-0.05651371265822686,-0.05382557184378788,-0.001289643470878574,-0.0001837795095666446,-0.0021101393319938465,0.9999969251736762,1.8427495412948896e-07,-3.779288183951088e-09,5.877403408280271e-09,1.6639426258408773e-08,-1.9218340324539897e-07,-2.3854077805302093e-08,-3.7792881839390455e-09,1.538053068085121e-09,3.8062353589764426e-11,9.303218469855619e-10,-4.216457828715448e-09,4.305585792828769e-08,5.877403408368444e-09,3.806235361203042e-11,1.857899478936774e-09,5.129566475304797e-09,-8.175366694108497e-08,7.797613770269219e-09,1.6639426258764775e-08,9.303218650681271e-10,5.129566463641964e-09,1.7610508236197066e-06,-2.6446702140358534e-07,1.7929385409736974e-07,-1.9218340324562026e-07,-4.216457827923186e-09,-8.175366693844086e-08,-2.6446702142276524e-07,7.077840576062174e-06,-7.613595697568778e-07,-2.3854077805202693e-08,4.3055857930822256e-08,7.797613769005843e-09,1.7929385408893625e-07,-7.613595697590174e-07,2.552354797119421e-06,0.0,0.0,0.0,0.0,0.0,0.0,0.0,0.0,0.0,0.0,0.0,0.0,0.0,0.0,0.0,0.0,0.0,0.0,0.0,0.0,0.0,0.0,0.0,0.0,0.0,0.0,0.0,0.0,0.0,0.0,0.0,0.0,0.0,0.0,0.0,0.0,0.0,0.0,0.0,0.0,0.0,0.0
1598245855,12,1598245855,camera_init,body,4.837014962927501,-0.06839353151530818,-0.05824329941373797,0.0008085680482637566,0.00024510031126403,-0.0022281378247907906,0.9999971607686592,1.5722292587946245e-07,-2.568983551586163e-09,6.172375109578244e-09,3.403506184583408e-08,-1.9004957030997024e-07,-1.1054630420414685e-08,-2.568983551628783e-09,1.5373279743058853e-09,8.759621867613251e-11,1.4751924444514355e-10,-7.074938488276545e-09,4.315735202573588e-08,6.172375109567178e-09,8.759621869482475e-11,1.6780539664106248e-09,2.7614085124607176e-09,-7.947207127003895e-08,9.30065004954761e-09,3.403506184520252e-08,1.4751925313474868e-10,2.7614085109858786e-09,1.6625358726693257e-06,-2.081419384327639e-07,1.6608880344186583e-07,-1.900495703103206e-07,-7.074938489385937e-09,-7.94720712681878e-08,-2.0814193845026228e-07,7.007106373518273e-06,-9.072169376283181e-07,-1.1054630420420843e-08,4.315735202818986e-08,9.300650049049412e-09,1.6608880343530153e-07,-9.072169376309824e-07,2.6011771867958482e-06,0.0,0.0,0.0,0.0,0.0,0.0,0.0,0.0,0.0,0.0,0.0,0.0,0.0,0.0,0.0,0.0,0.0,0.0,0.0,0.0,0.0,0.0,0.0,0.0,0.0,0.0,0.0,0.0,0.0,0.0,0.0,0.0,0.0,0.0,0.0,0.0,0.0,0.0,0.0,0.0,0.0,0.0
1699445857,13,1699445857,camera_init,body,5.25493079697415,-0.06877696103548366,-0.0722545016295421,-0.0003081089918431847,0.0003461120600753735,-0.0025560681247603985,0.999996625889822,1.7865371983011687e-07,-3.487814195805961e-09,6.177868933441029e-09,-5.507485345813658e-09,-2.0210679732971724e-07,-2.8768704522098505e-08,-3.4878141958887708e-09,1.3729877455025499e-09,1.7540327830319362e-14,1.7353629976083779e-09,-5.184261527392478e-09,3.9039517877261e-08,6.17786893343489e-09,1.7540339870579413e-14,1.9876979029937575e-09,4.732188979179203e-09,-8.443393623511188e-08,7.776745363623458e-09,-5.507485346198595e-09,1.7353629962026208e-09,4.732188970465706e-09,1.6037008477137165e-06,-1.6775146817235038e-07,1.8066228669266107e-07,-2.0210679732970284e-07,-5.1842615264141435e-09,-8.443393623294987e-08,-1.677514681878864e-07,6.999277467702682e-06,-8.46796803942326e-07,-2.876870452200463e-08,3.90395178760548e-08,7.776745361954017e-09,1.8066228668816198e-07,-8.467968039440935e-07,2.3617749387710333e-06,0.0,0.0,0.0,0.0,0.0,0.0,0.0,0.0,0.0,0.0,0.0,0.0,0.0,0.0,0.0,0.0,0.0,0.0,0.0,0.0,0.0,0.0,0.0,0.0,0.0,0.0,0.0,0.0,0.0,0.0,0.0,0.0,0.0,0.0,0.0,0.0,0.0,0.0,0.0,0.0,0.0,0.0
1798495845,14,1798495845,camera_init,body,5.669223841124588,-0.0804003621788772,-0.0694255144482098,0.0015449177433657624,0.0006592099570814906,-0.002679497746023333,0.9999949994691094,1.613263662490969e-07,-2.1128379872017368e-09,5.511872447355059e-09,4.601947627521141e-09,-1.7814484740929615e-07,-2.8893647150646554e-09,-2.112837987190096e-09,1.3369013983555904e-09,-3.75833437045735e-11,2.0814284359595147e-09,-4.795725127393171e-09,3.7264828771842436e-08,5.511872447419951e-09,-3.758334370442268e-11,1.5173373404492275e-09,1.3746947202881706e-10,-7.014907737961182e-08,6.091196231346268e-09,4.601947627145381e-09,2.0814284359912784e-09,1.3746947192750315e-10,1.555582950991716e-06,3.6338307827876946e-08,1.6806783105374042e-07,-1.7814484740938837e-07,-4.795725127697045e-09,-7.014907737802631e-08,3.6338307816384244e-08,6.461343662941547e-06,-8.232557406284483e-07,-2.8893647150340166e-09,3.7264828771930395e-08,6.091196231278924e-09,1.680678310506106e-07,-8.232557406300628e-07,2.224094633601777e-06,0.0,0.0,0.0,0.0,0.0,0.0,0.0,0.0,0.0,0.0,0.0,0.0,0.0,0.0,0.0,0.0,0.0,0.0,0.0,0.0,0.0,0.0,0.0,0.0,0.0,0.0,0.0,0.0,0.0,0.0,0.0,0.0,0.0,0.0,0.0,0.0,0.0,0.0,0.0,0.0,0.0,0.0
1899495860,15,1899495860,camera_init,body,6.098205174335599,-0.09539500088817118,-0.07018883913713482,0.0008448870817906921,0.0007399889254341764,-0.002686554441072469,0.9999957604947335,1.7413322190924145e-07,-2.6923298338790046e-09,6.012241497836821e-09,3.173539075939023e-08,-2.1773028181069237e-07,-3.406942789682829e-09,-2.6923298339000857e-09,1.3917979809898264e-09,1.674816792162791e-11,9.436625890626606e-10,-4.560260928415201e-09,3.79835264586566e-08,6.012241497855705e-09,1.6748167916330037e-11,1.8568091203052112e-09,1.6818478056366726e-10,-8.344507985083741e-08,7.653318830500045e-09,3.173539075901002e-08,9.436625889909805e-10,1.6818478045528261e-10,1.5097896377033375e-06,-3.0262987241797205e-08,1.3369786306574274e-07,-2.1773028181099677e-07,-4.560260928186186e-09,-8.344507985061427e-08,-3.026298725216355e-08,7.007490502265553e-06,-8.637280245801163e-07,-3.4069427897130436e-09,3.798352645728751e-08,7.653318830745684e-09,1.336978630633798e-07,-8.637280245815718e-07,2.2694971524469122e-06,0.0,0.0,0.0,0.0,0.0,0.0,0.0,0.0,0.0,0.0,0.0,0.0,0.0,0.0,0.0,0.0,0.0,0.0,0.0,0.0,0.0,0.0,0.0,0.0,0.0,0.0,0.0,0.0,0.0,0.0,0.0,0.0,0.0,0.0,0.0,0.0,0.0,0.0,0.0,0.0,0.0,0.0
1998145846,16,1998145846,camera_init,body,6.5146139858906675,-0.10397299289608174,-0.07740839504682892,0.0004945948986969802,0.0008318246168306943,-0.0028338858816502194,0.9999955162571975,1.8590060726335225e-07,-3.6762901710071198e-09,6.326306748890408e-09,4.392751394475097e-09,-2.1862995830313377e-07,-2.7120883967091018e-08,-3.6762901710312296e-09,1.3817815855347968e-09,6.21307089085724e-12,1.4831033998974005e-09,-5.312908822917462e-09,3.8839200764860374e-08,6.326306748763598e-09,6.213070893232363e-12,1.8529144586802151e-09,2.0939790704938914e-09,-8.475986653555846e-08,8.257443905278706e-09,4.392751394299589e-09,1.4831033996505962e-09,2.09397905515236e-09,1.5009732672449067e-06,5.6330684730894905e-09,1.3328193743144412e-07,-2.186299583031165e-07,-5.3129088224212715e-09,-8.475986653904668e-08,5.633068464376036e-09,7.295585632368165e-06,-9.142608763287458e-07,-2.7120883967127665e-08,3.883920076400231e-08,8.257443904798695e-09,1.332819374294884e-07,-9.14260876330018e-07,2.39603803100251e-06,0.0,0.0,0.0,0.0,0.0,0.0,0.0,0.0,0.0,0.0,0.0,0.0,0.0,0.0,0.0,0.0,0.0,0.0,0.0,0.0,0.0,0.0,0.0,0.0,0.0,0.0,0.0,0.0,0.0,0.0,0.0,0.0,0.0,0.0,0.0,0.0,0.0,0.0,0.0,0.0,0.0,0.0
2099408351,17,2099408351,camera_init,body,6.95384714113063,-0.11618114447949902,-0.08242832803319135,0.0021767120798447436,0.0008983187481649075,-0.0028403077803266456,0.9999931937766664,1.7819224318038347e-07,-2.3502264295187712e-09,5.718030153211598e-09,1.090800285931766e-08,-2.2045518526041203e-07,6.398272235582312e-09,-2.3502264294645404e-09,1.3138746828182733e-09,-2.333757193379521e-12,1.319585356946028e-09,-4.7963843185197844e-09,3.6518571579522595e-08,5.718030153220405e-09,-2.3337571987803973e-12,1.5992296471329303e-09,2.015355685445406e-09,-7.541519748602153e-08,7.404256283280221e-09,1.090800285855226e-08,1.3195853560189505e-09,2.0153556937994684e-09,1.432642134774415e-06,-6.643760663699923e-08,1.4266835259142582e-07,-2.204551852604205e-07,-4.796384318935679e-09,-7.541519748794409e-08,-6.643760664343717e-08,6.746406687897356e-06,-8.469832498462193e-07,6.398272235549602e-09,3.651857157824217e-08,7.404256284286913e-09,1.426683525899561e-07,-8.469832498469289e-07,2.2560495595498806e-06,0.0,0.0,0.0,0.0,0.0,0.0,0.0,0.0,0.0,0.0,0.0,0.0,0.0,0.0,0.0,0.0,0.0,0.0,0.0,0.0,0.0,0.0,0.0,0.0,0.0,0.0,0.0,0.0,0.0,0.0,0.0,0.0,0.0,0.0,0.0,0.0,0.0,0.0,0.0,0.0,0.0,0.0
2196570864,18,2196570864,camera_init,body,7.384845188910532,-0.1256568742986201,-0.08926938623441355,0.0012712427777208015,0.000812167048363902,-0.0028588338271731974,0.9999947756841685,1.6643023268190322e-07,-2.9108071537033167e-09,6.093612779385666e-09,3.914319071794693e-09,-2.0909820800827858e-07,7.895183306407149e-11,-2.9108071537684336e-09,1.3337569138184699e-09,-5.0037484531337474e-11,-1.1967790601960373e-10,-3.853769731791733e-09,3.6477094888427235e-08,6.093612779326917e-09,-5.003748453091917e-11,1.6667280546377844e-09,6.181699827235592e-10,-7.655848227161418e-08,6.872891868931747e-09,3.914319071614479e-09,-1.1967790241558442e-10,6.18169978887615e-10,1.3956470838949513e-06,4.551243055424348e-08,8.42962128468663e-08,-2.0909820800825243e-07,-3.8537697312719795e-09,-7.65584822741642e-08,4.551243054884049e-08,6.740578238671648e-06,-8.413152408157924e-07,7.895183310261479e-11,3.6477094890549146e-08,6.872891869021924e-09,8.429621284556822e-08,-8.413152408167842e-07,2.2990297590555535e-06,0.0,0.0,0.0,0.0,0.0,0.0,0.0,0.0,0.0,0.0,0.0,0.0,0.0,0.0,0.0,0.0,0.0,0.0,0.0,0.0,0.0,0.0,0.0,0.0,0.0,0.0,0.0,0.0,0.0,0.0,0.0,0.0,0.0,0.0,0.0,0.0,0.0,0.0,0.0,0.0,0.0,0.0
2298783354,19,2298783354,camera_init,body,7.841787038363623,-0.13842082308662004,-0.095930202251234,0.001471606853701275,0.0008367442067169655,-0.002929490890228366,0.9999942761413795,1.609924404658117e-07,-2.4980950860724167e-09,5.3155150393944985e-09,1.3005491095015567e-08,-2.0094891877990448e-07,1.4730193051241357e-09,-2.498095086207876e-09,1.2304699367570024e-09,-2.392660220428392e-11,-5.769611913481408e-10,-3.842918009963551e-09,3.478260886335646e-08,5.315515039465053e-09,-2.3926602191261333e-11,1.5781855888997347e-09,8.249936571582882e-10,-7.469225571232177e-08,6.668124948521464e-09,1.3005491094869785e-08,-5.769611847627773e-10,8.249936590123954e-10,1.386142101827729e-06,3.790626435093885e-08,6.971073029041619e-08,-2.009489187800581e-07,-3.842918008180791e-09,-7.469225570789434e-08,3.7906264346239964e-08,6.677263694516253e-06,-8.051646638765595e-07,1.473019305145136e-09,3.478260886363565e-08,6.668124948168036e-09,6.971073028927605e-08,-8.051646638773652e-07,2.2481878866824983e-06,0.0,0.0,0.0,0.0,0.0,0.0,0.0,0.0,0.0,0.0,0.0,0.0,0.0,0.0,0.0,0.0,0.0,0.0,0.0,0.0,0.0,0.0,0.0,0.0,0.0,0.0,0.0,0.0,0.0,0.0,0.0,0.0,0.0,0.0,0.0,0.0,0.0,0.0,0.0,0.0,0.0,0.0
2399720854,20,2399720854,camera_init,body,8.296056993739837,-0.14724077557166523,-0.09934195611149652,0.002477372266609261,0.0009380738725615497,-0.002946307066074896,0.9999921509285613,1.6467339815830087e-07,-3.2831250148582504e-09,6.977996385366484e-09,1.161393118349029e-09,-2.1215026434773896e-07,-3.618663606532723e-09,-3.2831250148549872e-09,1.2944796531617984e-09,-4.37224368851534e-11,1.1992897395970344e-09,-3.123547830129054e-09,3.5933271336255654e-08,6.977996385337183e-09,-4.372243688242699e-11,1.698223175717337e-09,1.3443953668555931e-09,-7.813392200552862e-08,7.106692763269285e-09,1.1613931187654186e-09,1.1992897425354976e-09,1.3443953498058655e-09,1.3341087973787085e-06,7.972078977476046e-08,1.0151767161937079e-07,-2.1215026434769576e-07,-3.1235478291747662e-09,-7.813392200889121e-08,7.972078977081235e-08,6.852120860828847e-06,-7.883324901726061e-07,-3.6186636064579292e-09,3.593327133816967e-08,7.106692762319949e-09,1.0151767161837259e-07,-7.883324901732481e-07,2.2717246799409368e-06,0.0,0.0,0.0,0.0,0.0,0.0,0.0,0.0,0.0,0.0,0.0,0.0,0.0,0.0,0.0,0.0,0.0,0.0,0.0,0.0,0.0,0.0,0.0,0.0,0.0,0.0,0.0,0.0,0.0,0.0,0.0,0.0,0.0,0.0,0.0,0.0,0.0,0.0,0.0,0.0,0.0,0.0
2499345861,21,2499345861,camera_init,body,8.751978572721836,-0.14638162502026644,-0.10211111414242685,0.0031103664891298927,0.0009811685596177175,-0.003002226804255987,0.9999901747331184,1.564864447530187e-07,-2.844723582562009e-09,6.1134000271262765e-09,1.714018994072531e-08,-2.0450933888894933e-07,6.387243831937715e-09,-2.8447235825954776e-09,1.3519881566888205e-09,9.536281558608848e-11,-8.887418851902883e-11,-6.495120944726687e-09,3.556385039820927e-08,6.11340002726014e-09,9.536281560708089e-11,1.723333487909783e-09,2.2764881434802146e-09,-7.925820382494373e-08,9.531000292956504e-09,1.7140189939138473e-08,-8.88742019812411e-11,2.2764881804064935e-09,1.303681540441913e-06,-2.341303350664324e-08,8.70999297026924e-08,-2.0450933888906876e-07,-6.495120945875523e-09,-7.925820382184357e-08,-2.341303351019583e-08,6.878688015968498e-06,-8.463001070515905e-07,6.3872438319573466e-09,3.5563850398987675e-08,9.531000291546257e-09,8.709992970190694e-08,-8.463001070520788e-07,2.1080593433452284e-06,0.0,0.0,0.0,0.0,0.0,0.0,0.0,0.0,0.0,0.0,0.0,0.0,0.0,0.0,0.0,0.0,0.0,0.0,0.0,0.0,0.0,0.0,0.0,0.0,0.0,0.0,0.0,0.0,0.0,0.0,0.0,0.0,0.0,0.0,0.0,0.0,0.0,0.0,0.0,0.0,0.0,0.0
2598670858,22,2598670858,camera_init,body,9.205235817485637,-0.14349946761801413,-0.10869868653825529,-0.0005858098145516148,0.0010096249169322885,-0.0030458406103362275,0.9999946801555297,1.7289658129612172e-07,-3.8743584858271426e-09,7.021106161518297e-09,1.3450297377922932e-08,-2.3374485722874502e-07,-3.226749377704067e-09,-3.874358485666768e-09,1.3449592081325387e-09,-4.931636370154747e-11,1.0079103876850436e-10,-2.436504575056059e-09,3.568302669299796e-08,7.021106161601883e-09,-4.931636370811102e-11,1.830573129677751e-09,7.018338806181394e-11,-8.126491611814126e-08,6.612621532959767e-09,1.3450297377579827e-08,1.0079103004618259e-10,7.018338660437133e-11,1.3327082854164432e-06,-1.897799507213735e-08,1.019225796144186e-07,-2.337448572287606e-07,-2.436504575413497e-09,-8.126491611912529e-08,-1.8977995075479604e-08,6.8983036256542495e-06,-7.410811400290543e-07,-3.226749377703167e-09,3.56830266935676e-08,6.612621533119775e-09,1.0192257961353464e-07,-7.410811400294948e-07,2.1293656112365e-06,0.0,0.0,0.0,0.0,0.0,0.0,0.0,0.0,0.0,0.0,0.0,0.0,0.0,0.0,0.0,0.0,0.0,0.0,0.0,0.0,0.0,0.0,0.0,0.0,0.0,0.0,0.0,0.0,0.0,0.0,0.0,0.0,0.0,0.0,0.0,0.0,0.0,0.0,0.0,0.0,0.0,0.0
2697245843,23,2697245843,camera_init,body,9.661837891855718,-0.1438978046786816,-0.11998265067483127,0.0009506407220304898,0.0008271713539649316,-0.003008785682663523,0.9999946796250866,1.8051161008728398e-07,-1.600535369700976e-09,7.860340849748657e-09,1.7296670062380886e-08,-2.6533873044048256e-07,2.9755463222143317e-08,-1.60053536971725e-09,1.4537989586788937e-09,8.191794098437813e-11,2.9486436755347795e-09,-6.8252437860389654e-09,3.904345234780755e-08,7.860340849763654e-09,8.191794098355236e-11,1.9852016157253377e-09,1.6403328834001911e-09,-8.791756683373373e-08,1.0243980163902e-08,1.729667006226261e-08,2.9486436756431997e-09,1.6403328833099192e-09,1.3810548814025049e-06,3.598830184598453e-09,1.5116198772255332e-07,-2.653387304404256e-07,-6.825243786131422e-09,-8.791756683742857e-08,3.598830181577146e-09,7.113711861360035e-06,-8.947840969573411e-07,2.9755463222146338e-08,3.9043452348767324e-08,1.0243980163961019e-08,1.511619877217024e-07,-8.947840969577169e-07,2.286409714671954e-06,0.0,0.0,0.0,0.0,0.0,0.0,0.0,0.0,0.0,0.0,0.0,0.0,0.0,0.0,0.0,0.0,0.0,0.0,0.0,0.0,0.0,0.0,0.0,0.0,0.0,0.0,0.0,0.0,0.0,0.0,0.0,0.0,0.0,0.0,0.0,0.0,0.0,0.0,0.0,0.0,0.0,0.0
2798820834,24,2798820834,camera_init,body,10.136022750116409,-0.14678103492279143,-0.12618578360361887,0.0007927238098053709,0.0008187211616464785,-0.0028722739515022687,0.9999952256520847,1.5895025324620828e-07,-2.020971550713489e-09,5.667379675059392e-09,7.712268958319323e-09,-1.8501320674687477e-07,1.4442783889016022e-08,-2.02097155071066e-09,1.3031654505027694e-09,7.510591419020705e-11,2.0919461303119483e-09,-8.001749425100045e-09,3.730112142096193e-08,5.667379675040194e-09,7.510591419085755e-11,1.887634461845316e-09,9.616701480907634e-10,-8.688089130707203e-08,9.769409967478805e-09,7.712268958248806e-09,2.0919461304482148e-09,9.616701480808091e-10,1.34784233006572e-06,-3.423377422841817e-08,1.5983634243207267e-07,-1.850132067468827e-07,-8.001749425552477e-09,-8.688089130707803e-08,-3.423377423108835e-08,7.300706905037633e-06,-9.181848740988384e-07,1.4442783889060041e-08,3.730112142317628e-08,9.76940996764171e-09,1.5983634243135584e-07,-9.18184874099171e-07,2.305203361383486e-06,0.0,0.0,0.0,0.0,0.0,0.0,0.0,0.0,0.0,0.0,0.0,0.0,0.0,0.0,0.0,0.0,0.0,0.0,0.0,0.0,0.0,0.0,0.0,0.0,0.0,0.0,0.0,0.0,0.0,0.0,0.0,0.0,0.0,0.0,0.0,0.0,0.0,0.0,0.0,0.0,0.0,0.0
2898158351,25,2898158351,camera_init,body,10.602107118247304,-0.14493361462728824,-0.1302123932705914,0.00012941415305933786,0.0008790623859230719,-0.0028765721426485293,0.9999954679067311,1.463884720169056e-07,-1.5602559112685825e-09,5.879146106920534e-09,2.5453934883670222e-08,-1.755091826085196e-07,1.4450721419267887e-08,-1.5602559112542593e-09,1.1417722502255943e-09,1.0425959220899104e-10,1.4193097489353653e-09,-7.647258214934627e-09,3.4140182377478173e-08,5.8791461071596365e-09,1.0425959220409623e-10,1.665563648650247e-09,1.2957685667955685e-09,-8.142413996540206e-08,9.188917539239335e-09,2.5453934883864765e-08,1.419309746384208e-09,1.2957685424926232e-09,1.3219000087660727e-06,4.676337331259011e-08,1.3465027370784126e-07,-1.755091826087161e-07,-7.647258215664268e-09,-8.142413996177812e-08,4.676337331030964e-08,7.124905301498034e-06,-8.118930846908852e-07,1.4450721419328414e-08,3.4140182377474746e-08,9.188917539202725e-09,1.3465027370719177e-07,-8.118930846912539e-07,2.2229959624013137e-06,0.0,0.0,0.0,0.0,0.0,0.0,0.0,0.0,0.0,0.0,0.0,0.0,0.0,0.0,0.0,0.0,0.0,0.0,0.0,0.0,0.0,0.0,0.0,0.0,0.0,0.0,0.0,0.0,0.0,0.0,0.0,0.0,0.0,0.0,0.0,0.0,0.0,0.0,0.0,0.0,0.0,0.0
2998545863,26,2998545863,camera_init,body,11.084126755867539,-0.15279971787276098,-0.13896489683422902,-7.933432047508305e-05,0.0006610867112607682,-0.002676306852026158,0.999996197018796,1.6479695487338526e-07,-1.8909466501907095e-09,6.619269187458381e-09,3.237337122306772e-08,-2.2180924838455034e-07,2.1271312787615812e-08,-1.890946650144142e-09,1.2501913299156728e-09,3.622330476438593e-11,7.204277294744452e-11,-4.986610018415929e-09,3.521616640633486e-08,6.61926918746894e-09,3.622330477491071e-11,1.8230623630244931e-09,1.5495852239275715e-09,-8.2746328445145e-08,7.910848626699624e-09,3.237337122329723e-08,7.204278339453713e-11,1.5495852196578388e-09,1.339532885289336e-06,1.908812667902072e-08,1.1182951087943615e-07,-2.2180924838454038e-07,-4.98661001926924e-09,-8.274632844789071e-08,1.90881266768651e-08,7.018014173048815e-06,-7.500803301454665e-07,2.127131278762201e-08,3.521616640648439e-08,7.910848626463035e-09,1.1182951087880101e-07,-7.50080330145817e-07,2.221534345238252e-06,0.0,0.0,0.0,0.0,0.0,0.0,0.0,0.0,0.0,0.0,0.0,0.0,0.0,0.0,0.0,0.0,0.0,0.0,0.0,0.0,0.0,0.0,0.0,0.0,0.0,0.0,0.0,0.0,0.0,0.0,0.0,0.0,0.0,0.0,0.0,0.0,0.0,0.0,0.0,0.0,0.0,0.0
3099345861,27,3099345861,camera_init,body,11.574787489807923,-0.1631676420316327,-0.14453578155531577,1.4447928684460224e-05,0.0006306838859609741,-0.0025163945428275008,0.9999966348881343,1.5215644107163936e-07,-2.7665718037439142e-09,5.160514559444655e-09,2.3370601150346204e-09,-1.7727168394372161e-07,7.011259094803291e-09,-2.7665718037909163e-09,1.1836464762292982e-09,3.9678808407495196e-12,2.0362382096834252e-09,-4.4921127457626335e-09,3.3358313353764545e-08,5.1605145594697e-09,3.9678808432462544e-12,1.5908708104659351e-09,1.7810403048488343e-09,-7.651121955492386e-08,7.390902822475902e-09,2.337060115364533e-09,2.0362382091908756e-09,1.7810402974305255e-09,1.3126727814533947e-06,-1.3206473997536896e-08,1.2225027334374075e-07,-1.7727168394363628e-07,-4.4921127466753446e-09,-7.651121955669146e-08,-1.3206473999418894e-08,6.7664042304894915e-06,-7.407770424980729e-07,7.01125909483259e-09,3.335831335662689e-08,7.390902822994973e-09,1.2225027334321395e-07,-7.407770424983253e-07,2.1025927222961973e-06,0.0,0.0,0.0,0.0,0.0,0.0,0.0,0.0,0.0,0.0,0.0,0.0,0.0,0.0,0.0,0.0,0.0,0.0,0.0,0.0,0.0,0.0,0.0,0.0,0.0,0.0,0.0,0.0,0.0,0.0,0.0,0.0,0.0,0.0,0.0,0.0,0.0,0.0,0.0,0.0,0.0,0.0
3199595846,28,3199595846,camera_init,body,12.064417616766484,-0.17233866587555302,-0.14989417973299726,0.0009131168379061803,0.0005313375491530008,-0.0024506828509014344,0.9999964390194644,1.4877864694317966e-07,-2.196173449176272e-09,4.664596604021422e-09,-2.551176275350401e-09,-1.4361900715105214e-07,1.616128148353749e-08,-2.1961734492500087e-09,1.2045896215660194e-09,6.165343234103475e-11,7.566298303448784e-11,-6.6343115056017946e-09,3.3677120078048226e-08,4.6645966040044884e-09,6.165343233663067e-11,1.5546393352552207e-09,-2.610649914719613e-10,-7.676385745678305e-08,8.504467158904764e-09,-2.5511762752364925e-09,7.566298523634999e-11,-2.610649896031465e-10,1.2773020161737177e-06,5.026710396093486e-08,9.289549214169691e-08,-1.4361900715098818e-07,-6.634311505331217e-09,-7.676385745899013e-08,5.026710395916123e-08,6.910357383949149e-06,-7.94202304418655e-07,1.6161281483564967e-08,3.367712007806589e-08,8.504467159096307e-09,9.289549214119809e-08,-7.942023044189855e-07,2.1600891376833067e-06,0.0,0.0,0.0,0.0,0.0,0.0,0.0,0.0,0.0,0.0,0.0,0.0,0.0,0.0,0.0,0.0,0.0,0.0,0.0,0.0,0.0,0.0,0.0,0.0,0.0,0.0,0.0,0.0,0.0,0.0,0.0,0.0,0.0,0.0,0.0,0.0,0.0,0.0,0.0,0.0,0.0,0.0
3299395864,29,3299395864,camera_init,body,12.554782257442204,-0.183178104754611,-0.15559543310523316,0.002270183063203986,0.00043120871367183683,-0.0024169394100360723,0.999994409350267,1.576985688142571e-07,-2.6788379066528093e-09,5.356247409087795e-09,2.4162994019940976e-08,-2.246593529161307e-07,1.1749442901821053e-08,-2.6788379067324664e-09,1.3148168218852303e-09,-8.116994188258155e-12,7.83696055210876e-11,-4.603823108932869e-09,3.5299512451953694e-08,5.356247409191447e-09,-8.116994185931102e-12,1.736905051121678e-09,1.1753119392271371e-09,-7.908744684208302e-08,7.1719015564871645e-09,2.4162994019901708e-08,7.836962081151461e-11,1.1753119424028845e-09,1.2901123395434323e-06,-6.533496168085469e-08,1.1151958976798876e-07,-2.246593529160859e-07,-4.603823108937365e-09,-7.908744684107893e-08,-6.533496168249408e-08,6.637791323780906e-06,-7.453764674669007e-07,1.1749442901771332e-08,3.529951245119774e-08,7.171901556396142e-09,1.1151958976753159e-07,-7.453764674670989e-07,2.0917919236480192e-06,0.0,0.0,0.0,0.0,0.0,0.0,0.0,0.0,0.0,0.0,0.0,0.0,0.0,0.0,0.0,0.0,0.0,0.0,0.0,0.0,0.0,0.0,0.0,0.0,0.0,0.0,0.0,0.0,0.0,0.0,0.0,0.0,0.0,0.0,0.0,0.0,0.0,0.0,0.0,0.0,0.0,0.0
3399395864,30,3399395864,camera_init,body,13.050523614035866,-0.19807521632559774,-0.15985566669976678,0.0025781666040687505,0.0003236482827161362,-0.0025866627942443374,0.9999932787195798,1.4215959716215934e-07,-1.5519765971053127e-09,4.90848583171545e-09,1.1690199230464491e-08,-1.531168608452557e-07,1.2026947567994561e-08,-1.5519765969208057e-09,1.3091372264329728e-09,1.171988190510546e-10,-1.5325830738716895e-10,-8.847865537049849e-09,3.6735648411680934e-08,4.908485831703931e-09,1.1719881902128632e-10,1.705948826884044e-09,1.7598488928854894e-09,-7.922871569544023e-08,9.007588616422333e-09,1.1690199230635605e-08,-1.5325829060024648e-10,1.7598488913867638e-09,1.2765116517018523e-06,-5.363985334076149e-08,8.643937772999432e-08,-1.5311686084525812e-07,-8.8478655347186e-09,-7.922871569875827e-08,-5.363985334227935e-08,6.817954277685061e-06,-7.949128314642109e-07,1.2026947567975721e-08,3.6735648411780156e-08,9.007588616575667e-09,8.643937772957864e-08,-7.949128314644702e-07,2.201116474228773e-06,0.0,0.0,0.0,0.0,0.0,0.0,0.0,0.0,0.0,0.0,0.0,0.0,0.0,0.0,0.0,0.0,0.0,0.0,0.0,0.0,0.0,0.0,0.0,0.0,0.0,0.0,0.0,0.0,0.0,0.0,0.0,0.0,0.0,0.0,0.0,0.0,0.0,0.0,0.0,0.0,0.0,0.0
3497520841,31,3497520841,camera_init,body,13.548257495374326,-0.2142521782910066,-0.1645789506927956,0.0010408009988633956,0.00029621671066429507,-0.0028012252721062772,0.9999954910527906,1.501167067165601e-07,-1.5346272677292425e-09,6.085525138842986e-09,1.9196124663416244e-08,-1.931299370708998e-07,2.4393693578243927e-08,-1.5346272677218724e-09,1.2563062058823624e-09,1.1933084134658568e-10,-1.399341404536521e-10,-8.710831697626022e-09,3.58144918810984e-08,6.085525138610001e-09,1.193308413251538e-10,2.0420914213222863e-09,2.8566734409334053e-09,-9.08331616554031e-08,1.0047293851904802e-08,1.9196124663552768e-08,-1.3993413015362558e-10,2.856673462727014e-09,1.2842224185409666e-06,-2.9092043740386897e-08,7.592348475953339e-08,-1.931299370708691e-07,-8.71083169553836e-09,-9.08331616559866e-08,-2.9092043741928444e-08,7.33501060891547e-06,-8.19389155443224e-07,2.439369357828058e-08,3.5814491880914166e-08,1.0047293853090879e-08,7.592348475912824e-08,-8.19389155443501e-07,2.245939873299172e-06,0.0,0.0,0.0,0.0,0.0,0.0,0.0,0.0,0.0,0.0,0.0,0.0,0.0,0.0,0.0,0.0,0.0,0.0,0.0,0.0,0.0,0.0,0.0,0.0,0.0,0.0,0.0,0.0,0.0,0.0,0.0,0.0,0.0,0.0,0.0,0.0,0.0,0.0,0.0,0.0,0.0,0.0
3599745848,32,3599745848,camera_init,body,14.069469019881408,-0.22956734175387722,-0.16817037096093115,0.0006132989729157317,0.0002601736032126576,-0.0032035314864616395,0.9999946467657103,1.5585459062706557e-07,-1.915868789058854e-09,5.7162837111196425e-09,3.600342707801909e-08,-2.0034801647284547e-07,1.3518020523240055e-08,-1.915868789064356e-09,1.3243589639793394e-09,9.885671007865745e-11,8.90859717669254e-11,-6.259484870131323e-09,3.664499819285261e-08,5.716283711272833e-09,9.88567100920489e-11,1.8189624670782059e-09,1.480041245566138e-09,-8.343325995844878e-08,8.299118768054106e-09,3.6003427077982276e-08,8.908597180535952e-11,1.4800412455143548e-09,1.2729174457888496e-06,-1.5086898954793023e-08,8.861889385006873e-08,-2.003480164729325e-07,-6.259484870495011e-09,-8.343325995668074e-08,-1.508689895612502e-08,6.921540477625386e-06,-7.15462865352849e-07,1.3518020523251134e-08,3.6644998194889325e-08,8.299118767487134e-09,8.86188938496695e-08,-7.154628653530742e-07,2.237526087430152e-06,0.0,0.0,0.0,0.0,0.0,0.0,0.0,0.0,0.0,0.0,0.0,0.0,0.0,0.0,0.0,0.0,0.0,0.0,0.0,0.0,0.0,0.0,0.0,0.0,0.0,0.0,0.0,0.0,0.0,0.0,0.0,0.0,0.0,0.0,0.0,0.0,0.0,0.0,0.0,0.0,0.0,0.0
3699770852,33,3699770852,camera_init,body,14.592060221637162,-0.24385138431640163,-0.1757293017967988,0.002943024805914044,0.00014859506630512977,-0.0034319431245484703,0.9999897690931062,1.5462289220566193e-07,-8.96239501802414e-10,5.4955766031221005e-09,1.0602195350041418e-08,-1.3858865739447973e-07,3.035070114039099e-08,-8.962395017943661e-10,1.2732428166808106e-09,1.5316852412627912e-10,-6.73314974149322e-10,-1.01703767116682e-08,3.6785366871264785e-08,5.495576603193177e-09,1.5316852413413866e-10,1.7786478836737617e-09,5.589269576821911e-10,-8.245603755716523e-08,9.895975867029473e-09,1.060219535003995e-08,-6.733149690723124e-10,5.589269564345016e-10,1.2805989198363384e-06,3.610120220929385e-08,4.2103215952651155e-08,-1.3858865739448312e-07,-1.0170376712201639e-08,-8.24560375570797e-08,3.610120220797307e-08,7.250123237218874e-06,-7.963816274185967e-07,3.035070114037569e-08,3.6785366872518963e-08,9.895975867104602e-09,4.210321595231626e-08,-7.963816274188936e-07,2.308007823472689e-06,0.0,0.0,0.0,0.0,0.0,0.0,0.0,0.0,0.0,0.0,0.0,0.0,0.0,0.0,0.0,0.0,0.0,0.0,0.0,0.0,0.0,0.0,0.0,0.0,0.0,0.0,0.0,0.0,0.0,0.0,0.0,0.0,0.0,0.0,0.0,0.0,0.0,0.0,0.0,0.0,0.0,0.0
3797770867,34,3797770867,camera_init,body,15.105035002378258,-0.2595127399967762,-0.18265967636861624,0.004594857640480326,0.00027241100404535755,-0.003660947020645759,0.9999827051216524,1.4682221585092742e-07,-1.6029135256810415e-09,5.043569816120404e-09,4.0784971662941245e-09,-1.8088983061585732e-07,2.52053986911269e-08,-1.6029135257381165e-09,1.3100997004435113e-09,-3.4538842680611764e-11,9.550587057412834e-10,-3.863092737176419e-09,3.661327189874291e-08,5.043569816200359e-09,-3.4538842673392054e-11,1.5912373020726916e-09,-3.714983429035808e-10,-7.798750283503715e-08,6.196977921131562e-09,4.078497166263893e-09,9.550587057743177e-10,-3.7149834287169135e-10,1.2087645987083515e-06,9.64628182482277e-08,6.116171148672849e-08,-1.808898306159777e-07,-3.863092737220842e-09,-7.798750283141251e-08,9.646281824713045e-08,6.724932908534071e-06,-7.122075749608731e-07,2.5205398691150358e-08,3.6613271898693846e-08,6.196977920532945e-09,6.116171148640556e-08,-7.122075749611087e-07,2.2155691312489688e-06,0.0,0.0,0.0,0.0,0.0,0.0,0.0,0.0,0.0,0.0,0.0,0.0,0.0,0.0,0.0,0.0,0.0,0.0,0.0,0.0,0.0,0.0,0.0,0.0,0.0,0.0,0.0,0.0,0.0,0.0,0.0,0.0,0.0,0.0,0.0,0.0,0.0,0.0,0.0,0.0,0.0,0.0
3899083341,35,3899083341,camera_init,body,15.63531835615524,-0.2634992498400224,-0.19480586148931478,0.002038301524455981,0.00047281895778017826,-0.003926316983636746,0.9999901028530586,1.7164897250810664e-07,-1.867814492840518e-09,5.819174193928911e-09,2.6437752871274724e-08,-2.0841657880711777e-07,3.8354556326921563e-08,-1.8678144928590554e-09,1.3263066161019275e-09,3.3864803623440444e-11,3.5006029628961604e-10,-6.5103107967839465e-09,3.690997964504503e-08,5.819174193913498e-09,3.386480362027867e-11,1.6543032390533012e-09,1.0123429667264113e-09,-7.692049802656712e-08,6.904251377724596e-09,2.643775287124413e-08,3.5006029619940703e-10,1.0123429667198004e-09,1.2262527236302304e-06,4.568361677981401e-09,9.607383226481571e-08,-2.0841657880714266e-07,-6.510310796317041e-09,-7.692049802516893e-08,4.568361676918216e-09,6.572552064791508e-06,-6.161827726270761e-07,3.835455632690667e-08,3.690997964248457e-08,6.904251377604683e-09,9.607383226440717e-08,-6.161827726272437e-07,2.258640646455598e-06,0.0,0.0,0.0,0.0,0.0,0.0,0.0,0.0,0.0,0.0,0.0,0.0,0.0,0.0,0.0,0.0,0.0,0.0,0.0,0.0,0.0,0.0,0.0,0.0,0.0,0.0,0.0,0.0,0.0,0.0,0.0,0.0,0.0,0.0,0.0,0.0,0.0,0.0,0.0,0.0,0.0,0.0
3999495840,36,3999495840,camera_init,body,16.16715963051665,-0.26641841347027834,-0.2061151061763333,0.0013348040750763015,0.0007230276609744506,-0.003931412883233325,0.9999911197214814,1.4979223805960723e-07,-2.2981806002200873e-09,5.457679230372522e-09,2.8870428530746924e-09,-1.5363886050022689e-07,1.2384749240661626e-08,-2.2981806002594975e-09,1.2186933370962735e-09,3.2095967170300716e-11,-1.8867176668520207e-09,-4.921185334316434e-09,3.525076130774829e-08,5.4576792305901675e-09,3.209596715801277e-11,1.71071165204164e-09,-6.264037332283512e-10,-7.991753089374613e-08,6.926855925361339e-09,2.88704285313595e-09,-1.886717661928324e-09,-6.264037333204925e-10,1.2227031579271865e-06,1.0669163686148263e-07,3.3729592808723553e-08,-1.5363886050026087e-07,-4.921185333295137e-09,-7.991753089173514e-08,1.0669163686046336e-07,6.9011583478062634e-06,-6.390313947165945e-07,1.2384749240662215e-08,3.5250761306643816e-08,6.926855924920527e-09,3.372959280830438e-08,-6.390313947168638e-07,2.2841352786866737e-06,0.0,0.0,0.0,0.0,0.0,0.0,0.0,0.0,0.0,0.0,0.0,0.0,0.0,0.0,0.0,0.0,0.0,0.0,0.0,0.0,0.0,0.0,0.0,0.0,0.0,0.0,0.0,0.0,0.0,0.0,0.0,0.0,0.0,0.0,0.0,0.0,0.0,0.0,0.0,0.0,0.0,0.0
4098670843,37,4098670843,camera_init,body,16.69839233302185,-0.2718249137585174,-0.2205364606655102,0.0014463488063056968,0.0009496684243483375,-0.003875345579576579,0.9999909939102706,1.7910658072276247e-07,-2.4839082470276545e-09,4.066950131838125e-09,1.1111976021713489e-08,-1.6243170161071947e-07,2.382587766784559e-08,-2.4839082469493192e-09,1.1959146596399162e-09,-2.0002649124176017e-11,-8.88826409212714e-10,-3.941934551498953e-09,3.473545232958441e-08,4.066950131783124e-09,-2.0002649125456525e-11,1.5573815777776881e-09,-2.2949023881579007e-10,-7.433333107178307e-08,5.411137068211784e-09,1.1111976022110274e-08,-8.888263977993685e-10,-2.2949023941221046e-10,1.192721011488741e-06,1.0706633374022494e-07,3.268857595742239e-08,-1.624317016107073e-07,-3.941934548952135e-09,-7.433333106891572e-08,1.0706633373936994e-07,6.727267419323405e-06,-6.150810690512699e-07,2.3825877667891363e-08,3.473545232982797e-08,5.411137067947119e-09,3.268857595710225e-08,-6.150810690514849e-07,2.2626035724643913e-06,0.0,0.0,0.0,0.0,0.0,0.0,0.0,0.0,0.0,0.0,0.0,0.0,0.0,0.0,0.0,0.0,0.0,0.0,0.0,0.0,0.0,0.0,0.0,0.0,0.0,0.0,0.0,0.0,0.0,0.0,0.0,0.0,0.0,0.0,0.0,0.0,0.0,0.0,0.0,0.0,0.0,0.0
4199445845,38,4199445845,camera_init,body,17.240454142091966,-0.27871926877312325,-0.23264736741797598,-0.0001510853918508137,0.0014157079457057422,-0.00391020161951351,0.9999913415962709,1.6129044955808886e-07,-1.7420759150875047e-09,6.151295892377567e-09,5.037822789465522e-09,-1.9997434859312043e-07,2.400045801212736e-08,-1.7420759151646155e-09,1.338651462214882e-09,1.952171782965615e-11,9.501724950470896e-10,-5.029456837627986e-09,3.772305845564177e-08,6.151295892411423e-09,1.9521717835562136e-11,1.922149291892338e-09,1.543647539773182e-11,-8.43349708508026e-08,6.933711724727474e-09,5.037822789440631e-09,9.50172495042325e-10,1.5436475411013032e-11,1.196331625889602e-06,5.842812794895344e-08,4.8142381016327924e-08,-1.999743485932206e-07,-5.0294568377462415e-09,-8.433497084640979e-08,5.842812794812748e-08,6.7611711832231414e-06,-6.28929952959235e-07,2.400045801212924e-08,3.7723058455466264e-08,6.933711724210382e-09,4.8142381016001684e-08,-6.289299529594125e-07,2.273386803143897e-06,0.0,0.0,0.0,0.0,0.0,0.0,0.0,0.0,0.0,0.0,0.0,0.0,0.0,0.0,0.0,0.0,0.0,0.0,0.0,0.0,0.0,0.0,0.0,0.0,0.0,0.0,0.0,0.0,0.0,0.0,0.0,0.0,0.0,0.0,0.0,0.0,0.0,0.0,0.0,0.0,0.0,0.0
4299358366,39,4299358366,camera_init,body,17.788302239779618,-0.2859620024804017,-0.24881041509538893,0.0010794976841160436,0.0016891473601401519,-0.0037715165977429844,0.9999908785226479,1.535987967460234e-07,-1.0708545193126135e-09,5.425678268991029e-09,6.5981151473491e-09,-1.8845455063002603e-07,2.7684978676944303e-08,-1.070854519271675e-09,1.2381704998039225e-09,1.2612695134023194e-10,-7.614979194701914e-10,-7.540475655515622e-09,3.568349646435225e-08,5.425678269062743e-09,1.2612695135481616e-10,1.7109790431449313e-09,-5.802389200191515e-11,-8.21513671266605e-08,8.895321687275217e-09,6.5981151471737745e-09,-7.614979256800017e-10,-5.8023888253481685e-11,1.197143645301385e-06,2.1141753000667166e-08,4.167916524499093e-08,-1.8845455063024753e-07,-7.540475656504929e-09,-8.215136711784375e-08,2.1141752999808818e-08,6.925467816041385e-06,-7.103964154254798e-07,2.768497867694786e-08,3.56834964641118e-08,8.895321686775744e-09,4.167916524467947e-08,-7.103964154256549e-07,2.2652879742497527e-06,0.0,0.0,0.0,0.0,0.0,0.0,0.0,0.0,0.0,0.0,0.0,0.0,0.0,0.0,0.0,0.0,0.0,0.0,0.0,0.0,0.0,0.0,0.0,0.0,0.0,0.0,0.0,0.0,0.0,0.0,0.0,0.0,0.0,0.0,0.0,0.0,0.0,0.0,0.0,0.0,0.0,0.0
4399620848,40,4399620848,camera_init,body,18.339888165132194,-0.285240767158579,-0.2672176453424392,0.0015237364869193286,0.001982177167472981,-0.0038820504684535435,0.9999893393856524,1.7608484160352988e-07,-2.3840139889693844e-09,6.230424654897875e-09,-1.718775357854337e-09,-2.134516698779081e-07,2.5407643053970964e-08,-2.3840139889714205e-09,1.4081270298477925e-09,6.474918811492818e-11,-7.505532945605226e-11,-6.080469860610852e-09,3.8836388638196295e-08,6.2304246548472005e-09,6.474918810650827e-11,1.8889156808387904e-09,-1.6171108416792151e-09,-8.606165194036942e-08,8.82733076213447e-09,-1.7187753578794817e-09,-7.505532948802776e-11,-1.6171108417288212e-09,1.2204706106796227e-06,1.3895079915649217e-07,1.744399811701416e-08,-2.1345166987777004e-07,-6.080469860097535e-09,-8.606165194492959e-08,1.3895079915562494e-07,7.127089556058203e-06,-7.614044766443314e-07,2.5407643053924513e-08,3.8836388635680554e-08,8.827330762726806e-09,1.744399811667041e-08,-7.614044766445596e-07,2.351044622481494e-06,0.0,0.0,0.0,0.0,0.0,0.0,0.0,0.0,0.0,0.0,0.0,0.0,0.0,0.0,0.0,0.0,0.0,0.0,0.0,0.0,0.0,0.0,0.0,0.0,0.0,0.0,0.0,0.0,0.0,0.0,0.0,0.0,0.0,0.0,0.0,0.0,0.0,0.0,0.0,0.0,0.0,0.0
4498770864,41,4498770864,camera_init,body,18.89371525751542,-0.29686680918583797,-0.2770403198633792,-0.0003472402083178591,0.002418984216530953,-0.003826889491431105,0.9999896913750743,1.705621606890186e-07,-2.7584445973596027e-09,6.248957682953765e-09,5.444100169774474e-09,-1.9753089582506024e-07,1.8466691057553907e-08,-2.7584445973716262e-09,1.2494842347801909e-09,-8.425906298145952e-11,5.21280955308049e-11,-2.36485302991316e-09,3.5745790273561096e-08,6.24895768291078e-09,-8.425906298290561e-11,1.7384402937103884e-09,-1.354882785961397e-09,-8.166044838580474e-08,5.465590199194217e-09,5.444100169751755e-09,5.212809552127578e-11,-1.3548827860082634e-09,1.14623743233494e-06,9.381041049283765e-08,1.6346527815209697e-08,-1.975308958249912e-07,-2.364853029987057e-09,-8.166044838646845e-08,9.381041049208222e-08,6.993843835480907e-06,-6.442153563040516e-07,1.8466691057532572e-08,3.574579027419199e-08,5.465590199345512e-09,1.6346527814925613e-08,-6.442153563042329e-07,2.2712511482074244e-06,0.0,0.0,0.0,0.0,0.0,0.0,0.0,0.0,0.0,0.0,0.0,0.0,0.0,0.0,0.0,0.0,0.0,0.0,0.0,0.0,0.0,0.0,0.0,0.0,0.0,0.0,0.0,0.0,0.0,0.0,0.0,0.0,0.0,0.0,0.0,0.0,0.0,0.0,0.0,0.0,0.0,0.0
4599720843,42,4599720843,camera_init,body,19.46471530528117,-0.3013399384792997,-0.2864047201486545,-0.0011702648301804759,0.0025999439941373596,-0.0038598277078971625,0.9999884861844749,1.7082639988734395e-07,-1.0640791004305372e-09,6.4342733033152805e-09,-1.0349830258865906e-09,-2.074770775112211e-07,4.84270291256548e-08,-1.0640791004250995e-09,1.3605924108997958e-09,7.897135627067117e-11,-4.817738848182278e-10,-6.087918259981421e-09,3.649587969713727e-08,6.434273303361803e-09,7.897135627440991e-11,1.8990930424032395e-09,-7.409124093001099e-10,-8.298546758585963e-08,8.332224459073492e-09,-1.0349830258181836e-09,-4.817738762351371e-10,-7.409124094954098e-10,1.1341091819581595e-06,1.2330999744697868e-07,4.386594834392136e-08,-2.0747707751117357e-07,-6.087918260178981e-09,-8.298546758327644e-08,1.2330999744631092e-07,6.632664915900859e-06,-6.300094152629955e-07,4.8427029125665226e-08,3.649587969690325e-08,8.332224458860568e-09,4.386594834371398e-08,-6.300094152631389e-07,2.122784136878516e-06,0.0,0.0,0.0,0.0,0.0,0.0,0.0,0.0,0.0,0.0,0.0,0.0,0.0,0.0,0.0,0.0,0.0,0.0,0.0,0.0,0.0,0.0,0.0,0.0,0.0,0.0,0.0,0.0,0.0,0.0,0.0,0.0,0.0,0.0,0.0,0.0,0.0,0.0,0.0,0.0,0.0,0.0
4696695840,43,4696695840,camera_init,body,20.01925451965801,-0.3007839938358673,-0.30011327069724686,-0.002300839371807305,0.002691408224220988,-0.003992394148420755,0.9999857615230916,1.6121808905233828e-07,-1.2458635584649379e-09,5.4942126572676455e-09,-1.5286361067378648e-09,-1.8949506317172093e-07,3.599647752939448e-08,-1.2458635585174353e-09,1.1532809838008364e-09,6.548761174828242e-11,1.9408008218499362e-10,-5.011890865990107e-09,3.431122062474262e-08,5.49421265712437e-09,6.548761175618987e-11,2.0168070624464705e-09,3.362357810121844e-10,-8.845822293355052e-08,8.142682541436437e-09,-1.5286361068369147e-09,1.9408007085021048e-10,3.3623578361702413e-10,1.173801130509631e-06,4.326460939688504e-08,7.541126009134652e-08,-1.8949506317169806e-07,-5.0118908660793766e-09,-8.845822293341871e-08,4.3264609396184065e-08,6.971932136991375e-06,-6.645367230014265e-07,3.5996477529388005e-08,3.431122062325791e-08,8.14268254160051e-09,7.541126009108128e-08,-6.645367230015516e-07,2.2312027660807616e-06,0.0,0.0,0.0,0.0,0.0,0.0,0.0,0.0,0.0,0.0,0.0,0.0,0.0,0.0,0.0,0.0,0.0,0.0,0.0,0.0,0.0,0.0,0.0,0.0,0.0,0.0,0.0,0.0,0.0,0.0,0.0,0.0,0.0,0.0,0.0,0.0,0.0,0.0,0.0,0.0,0.0,0.0
4799670858,44,4799670858,camera_init,body,20.613387023282574,-0.30730575504419705,-0.31238179912644,-0.0016740504574713389,0.002951587081190128,-0.004012667828525733,0.9999861919975016,1.7279976323922704e-07,-2.499293896617083e-09,5.923291036414381e-09,-5.199386350948934e-09,-2.2616099538918794e-07,9.319402995268234e-09,-2.4992938965850063e-09,1.2696080799228177e-09,1.7961600350564664e-11,1.5081035245568823e-10,-3.303105568141718e-09,3.5358121011228726e-08,5.923291036358017e-09,1.796160034639831e-11,1.873400715536166e-09,-1.100972208320841e-09,-8.388868846100003e-08,7.171104395022595e-09,-5.199386350970765e-09,1.5081035248586378e-10,-1.1009722083436522e-09,1.1728350221154478e-06,6.039847401801068e-08,6.052153663005175e-08,-2.2616099538911224e-07,-3.303105567832667e-09,-8.388868846268763e-08,6.039847401736367e-08,6.80682095803923e-06,-6.503044163485636e-07,9.319402995262669e-09,3.535812101022772e-08,7.171104395422218e-09,6.052153662977996e-08,-6.503044163487005e-07,2.1967430364427296e-06,0.0,0.0,0.0,0.0,0.0,0.0,0.0,0.0,0.0,0.0,0.0,0.0,0.0,0.0,0.0,0.0,0.0,0.0,0.0,0.0,0.0,0.0,0.0,0.0,0.0,0.0,0.0,0.0,0.0,0.0,0.0,0.0,0.0,0.0,0.0,0.0,0.0,0.0,0.0,0.0,0.0,0.0
4899145849,45,4899145849,camera_init,body,21.18756438661611,-0.3206756597801787,-0.3236884176282063,-0.0011233236654268326,0.0031980973697502703,-0.0039028882287512412,0.9999866388010532,1.5154522824630564e-07,-7.863477206381192e-10,5.994845709786583e-09,-8.704102142491792e-10,-2.0265559512694287e-07,4.2233870540054216e-08,-7.863477205183346e-10,1.1380633777152683e-09,6.152337046630126e-11,-8.179600502830405e-10,-5.4835242314875385e-09,3.394454185628631e-08,5.9948457097294155e-09,6.152337044768936e-11,1.8214815198546374e-09,-2.513845809003074e-09,-8.350027641569301e-08,8.077033282987051e-09,-8.704102141905553e-10,-8.179600560203123e-10,-2.5138458122625546e-09,1.1277700881125833e-06,1.1172754521147085e-07,5.657907792304874e-08,-2.0265559512688834e-07,-5.4835242290760224e-09,-8.350027642080194e-08,1.1172754521094327e-07,6.743489525000238e-06,-6.688818258506539e-07,4.223387054006348e-08,3.394454185639521e-08,8.077033283088892e-09,5.6579077922813525e-08,-6.688818258507882e-07,2.1997320547075168e-06,0.0,0.0,0.0,0.0,0.0,0.0,0.0,0.0,0.0,0.0,0.0,0.0,0.0,0.0,0.0,0.0,0.0,0.0,0.0,0.0,0.0,0.0,0.0,0.0,0.0,0.0,0.0,0.0,0.0,0.0,0.0,0.0,0.0,0.0,0.0,0.0,0.0,0.0,0.0,0.0,0.0,0.0
4999545851,46,4999545851,camera_init,body,21.767849528639232,-0.3346809185104339,-0.3326769434317117,-0.0012387534720673086,0.003381185597750275,-0.0037780545764670086,0.9999863795959444,1.6683188415631895e-07,-1.2184287637785112e-09,7.255170980926721e-09,1.2877536032786781e-09,-2.240258434628722e-07,3.9536137113567066e-08,-1.2184287638091086e-09,1.1961686285574813e-09,1.626818799830706e-11,4.2893132052165915e-10,-4.494063900072348e-09,3.4338227314136187e-08,7.255170980965461e-09,1.626818800593493e-11,2.0010316443381474e-09,-1.0622301798695395e-09,-8.600196913364097e-08,7.826015516551808e-09,1.2877536032623918e-09,4.28931320556811e-10,-1.0622301798444503e-09,1.1229752789451443e-06,7.736924051829436e-08,5.18021479348278e-08,-2.2402584346297215e-07,-4.494063900261491e-09,-8.600196913190546e-08,7.736924051779064e-08,6.74122053276417e-06,-6.69005101138243e-07,3.9536137113591074e-08,3.4338227314977595e-08,7.826015516146774e-09,5.180214793464472e-08,-6.690051011383629e-07,2.1908986792510166e-06,0.0,0.0,0.0,0.0,0.0,0.0,0.0,0.0,0.0,0.0,0.0,0.0,0.0,0.0,0.0,0.0,0.0,0.0,0.0,0.0,0.0,0.0,0.0,0.0,0.0,0.0,0.0,0.0,0.0,0.0,0.0,0.0,0.0,0.0,0.0,0.0,0.0,0.0,0.0,0.0,0.0,0.0
5099445845,47,5099445845,camera_init,body,22.344805646490304,-0.3437014640436478,-0.33704480420091165,-0.001315590976552131,0.0033510653755322328,-0.0036773621903875616,0.9999867582066024,1.6450706127431666e-07,-1.7932219089066225e-09,5.379653738305736e-09,2.1315150162346245e-09,-1.9237628051618356e-07,3.650940885446042e-08,-1.7932219088831558e-09,1.1750324813494936e-09,-1.0451901149247757e-11,8.14350060875433e-10,-3.1325086290242005e-09,3.323418236671134e-08,5.3796537382105724e-09,-1.0451901151682906e-11,1.7155009534569458e-09,8.138747518726861e-11,-7.765298800248739e-08,6.7335773563649375e-09,2.1315150162231064e-09,8.143500609366311e-10,8.138747514959798e-11,1.1007602979142065e-06,5.1922088006255836e-08,7.142652144817509e-08,-1.9237628051615677e-07,-3.132508628929538e-09,-7.765298800521245e-08,5.192208800578908e-08,6.388144684833206e-06,-6.320343983553428e-07,3.6509408854474433e-08,3.323418236716347e-08,6.73357735665077e-09,7.142652144802784e-08,-6.320343983554396e-07,2.140547866464533e-06,0.0,0.0,0.0,0.0,0.0,0.0,0.0,0.0,0.0,0.0,0.0,0.0,0.0,0.0,0.0,0.0,0.0,0.0,0.0,0.0,0.0,0.0,0.0,0.0,0.0,0.0,0.0,0.0,0.0,0.0,0.0,0.0,0.0,0.0,0.0,0.0,0.0,0.0,0.0,0.0,0.0,0.0
5199770864,48,5199770864,camera_init,body,22.931879749052573,-0.348498701070546,-0.33729009673783195,-0.00011707473283135114,0.003130310376745728,-0.003520047035256486,0.999988898298036,1.6988805761346026e-07,-1.5673663404772852e-09,6.477514375824454e-09,8.552339042881668e-09,-1.8024582951059008e-07,4.211273421795667e-08,-1.5673663404103423e-09,1.243851028456095e-09,-3.132303910593175e-11,1.176902856360421e-10,-2.047780117791859e-09,3.454864295574802e-08,6.477514375840904e-09,-3.132303910961652e-11,2.023556906294386e-09,-1.8693162220875777e-09,-8.798236443067888e-08,6.2846532072610675e-09,8.552339042981128e-09,1.1769030418786358e-10,-1.8693162204851985e-09,1.0999326917138518e-06,7.583582651637964e-08,8.657946052870495e-08,-1.8024582951057643e-07,-2.047780118018005e-09,-8.798236443269824e-08,7.583582651585193e-08,6.918424513025888e-06,-5.828359617480053e-07,4.211273421796752e-08,3.454864295664797e-08,6.28465320740483e-09,8.657946052859546e-08,-5.828359617481105e-07,2.1496137352017858e-06,0.0,0.0,0.0,0.0,0.0,0.0,0.0,0.0,0.0,0.0,0.0,0.0,0.0,0.0,0.0,0.0,0.0,0.0,0.0,0.0,0.0,0.0,0.0,0.0,0.0,0.0,0.0,0.0,0.0,0.0,0.0,0.0,0.0,0.0,0.0,0.0,0.0,0.0,0.0,0.0,0.0,0.0
